% pos mode  : leo-rdn
% solution  : forward
% elev mask : -5.0 deg
% dynamics  : on
% tidecorr  : off
% tropo opt : off
% ephemeris : broadcast
% antenna1  :                       ( 0.0000  0.0000  0.0000)
%  GPST                      x-ecef(m)      y-ecef(m)      z-ecef(m)   Q  ns   sdx(m)   sdy(m)   sdz(m)  sdxy(m)  sdyz(m)  sdzx(m) age(s)  ratio
2016/01/01 00:00:00.000    528131.2048  -1244432.9893  -6627487.4345   6   8      nan      nan      nan      nan      nan      nan   0.00    0.0
2016/01/01 00:00:10.000    562518.4548  -1310881.6024  -6611341.2781   0   1      nan      nan      nan      nan      nan      nan   0.00    0.0
2016/01/01 00:00:20.000    596770.6248  -1377292.5768  -6594772.5655   0   1      nan      nan      nan      nan      nan      nan   0.00    0.0
2016/01/01 00:00:30.000    630849.8858  -1443577.9720  -6577356.0916   0   1      nan      nan      nan      nan      nan      nan   0.00    0.0
2016/01/01 00:00:40.000    664752.2199  -1509728.5785  -6559094.3427   0   1      nan      nan      nan      nan      nan      nan   0.00    0.0
2016/01/01 00:00:50.000    698473.3078  -1575736.0233  -6539990.4221   0   1      nan      nan      nan      nan      nan      nan   0.00    0.0
2016/01/01 00:01:00.000    732009.2665  -1641591.0941  -6520045.4720   0   1      nan      nan      nan      nan      nan      nan   0.00    0.0
2016/01/01 00:01:10.000    765356.0203  -1707285.7872  -6499263.8579   0   1      nan      nan      nan      nan      nan      nan   0.00    0.0
2016/01/01 00:01:20.000    798509.2100  -1772810.9279  -6477647.5870   0   1      nan      nan      nan      nan      nan      nan   0.00    0.0
2016/01/01 00:01:30.000    831465.2323  -1838158.3787  -6455197.2899   0   1      nan      nan      nan      nan      nan      nan   0.00    0.0
2016/01/01 00:01:40.000    864219.1887  -1903319.6239  -6431911.8811   0   0      nan      nan      nan      nan      nan      nan   0.00    0.0
2016/01/01 00:01:50.000    896769.3610  -1968284.3758  -6407809.7934   0   1      nan      nan      nan      nan      nan      nan   0.00    0.0
2016/01/01 00:02:00.000    929109.8978  -2033045.7328  -6382879.1431   0   1      nan      nan      nan      nan      nan      nan   0.00    0.0
2016/01/01 00:02:10.000    961237.3559  -2097594.2937  -6357129.0268   0   1      nan      nan      nan      nan      nan      nan   0.00    0.0
2016/01/01 00:02:20.000    993148.2007  -2161922.0142  -6330560.4747   0   1      nan      nan      nan      nan      nan      nan   0.00    0.0
2016/01/01 00:02:30.000   1024838.8604  -2226020.1333  -6303175.8013   0   1      nan      nan      nan      nan      nan      nan   0.00    0.0
2016/01/01 00:02:40.000   1056305.1295  -2289879.8719  -6274980.7541   0   1      nan      nan      nan      nan      nan      nan   0.00    0.0
2016/01/01 00:02:50.000   1087543.3903  -2353493.1009  -6245979.4734   0   0      nan      nan      nan      nan      nan      nan   0.00    0.0
2016/01/01 00:03:00.000   1118550.3750  -2416850.5532  -6216177.0714   0   0      nan      nan      nan      nan      nan      nan   0.00    0.0
2016/01/01 00:03:10.000   1149322.3730  -2479945.3943  -6185573.6193   0   0      nan      nan      nan      nan      nan      nan   0.00    0.0
2016/01/01 00:03:20.000   1179855.4924  -2542767.3202  -6154175.4190   0   0      nan      nan      nan      nan      nan      nan   0.00    0.0
2016/01/01 00:03:30.000   1210146.6276  -2605308.9323  -6121985.0710   0   0      nan      nan      nan      nan      nan      nan   0.00    0.0
2016/01/01 00:03:40.000   1240192.1043  -2667561.6080  -6089007.0301   0   0      nan      nan      nan      nan      nan      nan   0.00    0.0
2016/01/01 00:03:50.000   1269988.1011  -2729516.8763  -6055245.9497   0   0      nan      nan      nan      nan      nan      nan   0.00    0.0
2016/01/01 00:04:00.000   1299532.1854  -2791167.0356  -6020706.0241   0   0      nan      nan      nan      nan      nan      nan   0.00    0.0
2016/01/01 00:04:10.000   1328820.3583  -2852503.1111  -5985390.4969   0   0      nan      nan      nan      nan      nan      nan   0.00    0.0
2016/01/01 00:04:20.000   1357849.7027  -2913517.3005  -5949305.4083   0   0      nan      nan      nan      nan      nan      nan   0.00    0.0
2016/01/01 00:04:30.000   1386616.5562  -2974201.2033  -5912453.0468   0   0      nan      nan      nan      nan      nan      nan   0.00    0.0
2016/01/01 00:04:40.000   1415118.2438  -3034546.8209  -5874840.5848   0   0      nan      nan      nan      nan      nan      nan   0.00    0.0
2016/01/01 00:04:50.000   1443351.2075  -3094545.8623  -5836471.1005   0   0      nan      nan      nan      nan      nan      nan   0.00    0.0
2016/01/01 00:05:00.000   1471312.5590  -3154190.2979  -5797350.5235   0   0      nan      nan      nan      nan      nan      nan   0.00    0.0
2016/01/01 00:05:10.000   1498998.8325  -3213471.7135  -5757483.0688   0   0      nan      nan      nan      nan      nan      nan   0.00    0.0
2016/01/01 00:05:20.000   1526407.4397  -3272382.6260  -5716874.4933   0   1      nan      nan      nan      nan      nan      nan   0.00    0.0
2016/01/01 00:05:30.000   1553535.7483  -3330915.1325  -5675530.2686   0   1      nan      nan      nan      nan      nan      nan   0.00    0.0
2016/01/01 00:05:40.000   1580379.7235  -3389060.4492  -5633453.9772   0   1      nan      nan      nan      nan      nan      nan   0.00    0.0
2016/01/01 00:05:50.000   1606935.2337  -3446810.2316  -5590650.6362   0   1      nan      nan      nan      nan      nan      nan   0.00    0.0
2016/01/01 00:06:00.000   1633202.0035  -3504157.7573  -5547127.4981   0   0      nan      nan      nan      nan      nan      nan   0.00    0.0
2016/01/01 00:06:10.000   1659186.0106  -3561101.9593  -5502898.3148   0   1      nan      nan      nan      nan      nan      nan   0.00    0.0
2016/01/01 00:06:20.000   1684857.6000  -3617615.5396  -5457944.2341   0   0      nan      nan      nan      nan      nan      nan   0.00    0.0
2016/01/01 00:06:30.000   1710239.6992  -3673709.3436  -5412293.8688   0   0      nan      nan      nan      nan      nan      nan   0.00    0.0
2016/01/01 00:06:40.000   1735321.6716  -3729370.1310  -5365946.8328   0   0      nan      nan      nan      nan      nan      nan   0.00    0.0
2016/01/01 00:06:50.000   1760100.4041  -3784589.6434  -5318907.2065   0   0      nan      nan      nan      nan      nan      nan   0.00    0.0
2016/01/01 00:07:00.000   1784574.0807  -3839360.8476  -5271182.5002   0   0      nan      nan      nan      nan      nan      nan   0.00    0.0
2016/01/01 00:07:10.000   1808739.2875  -3893675.4839  -5222777.5378   0   0      nan      nan      nan      nan      nan      nan   0.00    0.0
2016/01/01 00:07:20.000   1832596.1606  -3947527.8215  -5173702.0107   0   0      nan      nan      nan      nan      nan      nan   0.00    0.0
2016/01/01 00:07:30.000   1856138.1076  -4000908.0188  -5123956.7064   0   0      nan      nan      nan      nan      nan      nan   0.00    0.0
2016/01/01 00:07:40.000   1879364.6489  -4053809.7756  -5073549.9744   0   0      nan      nan      nan      nan      nan      nan   0.00    0.0
2016/01/01 00:07:50.000   1902273.9055  -4106226.1595  -5022489.4290   0   0      nan      nan      nan      nan      nan      nan   0.00    0.0
2016/01/01 00:08:00.000   1924863.2611  -4158149.6025  -4970780.5016   0   0      nan      nan      nan      nan      nan      nan   0.00    0.0
2016/01/01 00:08:10.000   1947130.5821  -4209572.8186  -4918430.1463   0   0      nan      nan      nan      nan      nan      nan   0.00    0.0
2016/01/01 00:08:20.000   1969073.7423  -4260488.8112  -4865445.2521   0   0      nan      nan      nan      nan      nan      nan   0.00    0.0
2016/01/01 00:08:30.000   1990690.7954  -4310890.8752  -4811832.2415   0   0      nan      nan      nan      nan      nan      nan   0.00    0.0
2016/01/01 00:08:40.000   2011979.4243  -4360771.2018  -4757597.9246   0   0      nan      nan      nan      nan      nan      nan   0.00    0.0
2016/01/01 00:08:50.000   2032937.8740  -4410123.6246  -4702749.8413   0   0      nan      nan      nan      nan      nan      nan   0.00    0.0
2016/01/01 00:09:00.000   2053564.0376  -4458941.0789  -4647294.4645   0   0      nan      nan      nan      nan      nan      nan   0.00    0.0
2016/01/01 00:09:10.000   2073856.1265  -4507216.5187  -4591238.8479   0   0      nan      nan      nan      nan      nan      nan   0.00    0.0
2016/01/01 00:09:20.000   2093812.1430  -4554943.2275  -4534590.2852   0   0      nan      nan      nan      nan      nan      nan   0.00    0.0
2016/01/01 00:09:30.000   2113430.4505  -4602114.5872  -4477355.9622   0   0      nan      nan      nan      nan      nan      nan   0.00    0.0
2016/01/01 00:09:40.000   2132709.2750  -4648723.9731  -4419543.4159   0   0      nan      nan      nan      nan      nan      nan   0.00    0.0
2016/01/01 00:09:50.000   2151647.0015  -4694765.1612  -4361159.9831   0   0      nan      nan      nan      nan      nan      nan   0.00    0.0
2016/01/01 00:10:00.000   2170241.6805  -4740230.7985  -4302212.8467   0   0      nan      nan      nan      nan      nan      nan   0.00    0.0
2016/01/01 00:10:10.000   2188492.4812  -4785115.5907  -4242709.9531   0   0      nan      nan      nan      nan      nan      nan   0.00    0.0
2016/01/01 00:10:20.000   2206397.0452  -4829412.4640  -4182658.6778   0   0      nan      nan      nan      nan      nan      nan   0.00    0.0
2016/01/01 00:10:30.000   2223954.3618  -4873115.2933  -4122066.5692   0   0      nan      nan      nan      nan      nan      nan   0.00    0.0
2016/01/01 00:10:40.000   2241162.8159  -4916217.8419  -4060941.6138   0   0      nan      nan      nan      nan      nan      nan   0.00    0.0
2016/01/01 00:10:50.000   2258021.2616  -4958714.3237  -3999291.8208   0   0      nan      nan      nan      nan      nan      nan   0.00    0.0
2016/01/01 00:11:00.000   2274528.0193  -5000598.2209  -3937124.6320   0   0      nan      nan      nan      nan      nan      nan   0.00    0.0
2016/01/01 00:11:10.000   2290682.1631  -5041863.9974  -3874448.4265   0   0      nan      nan      nan      nan      nan      nan   0.00    0.0
2016/01/01 00:11:20.000   2306482.4475  -5082505.4796  -3811271.1027   0   0      nan      nan      nan      nan      nan      nan   0.00    0.0
2016/01/01 00:11:30.000   2321927.5163  -5122516.9214  -3747600.8953   0   0      nan      nan      nan      nan      nan      nan   0.00    0.0
2016/01/01 00:11:40.000   2337016.4579  -5161892.2833  -3683445.6107   0   0      nan      nan      nan      nan      nan      nan   0.00    0.0
2016/01/01 00:11:50.000   2351748.2784  -5200626.5293  -3618813.7915   0   0      nan      nan      nan      nan      nan      nan   0.00    0.0
2016/01/01 00:12:00.000   2366121.7820  -5238713.6798  -3553713.6634   0   0      nan      nan      nan      nan      nan      nan   0.00    0.0
2016/01/01 00:12:10.000   2380136.1154  -5276148.1053  -3488153.6440   0   0      nan      nan      nan      nan      nan      nan   0.00    0.0
2016/01/01 00:12:20.000   2393790.4350  -5312924.6685  -3422142.1348   0   0      nan      nan      nan      nan      nan      nan   0.00    0.0
2016/01/01 00:12:30.000   2407084.3028  -5349038.2192  -3355688.3785   0   0      nan      nan      nan      nan      nan      nan   0.00    0.0
2016/01/01 00:12:40.000   2420016.0360  -5384482.8052  -3288799.1829   0   0      nan      nan      nan      nan      nan      nan   0.00    0.0
2016/01/01 00:12:50.000   2419859.4633  -5384135.3928  -3288586.0002   0   0      nan      nan      nan      nan      nan      nan   0.00    0.0
2016/01/01 00:13:00.000   2444791.5820  -5453345.3565  -3153752.0195   0   0      nan      nan      nan      nan      nan      nan   0.00    0.0
2016/01/01 00:13:10.000   2456634.4518  -5486753.6511  -3085611.3094   0   0      nan      nan      nan      nan      nan      nan   0.00    0.0
2016/01/01 00:13:20.000   2468112.8997  -5519473.2812  -3017071.0053   0   0      nan      nan      nan      nan      nan      nan   0.00    0.0
2016/01/01 00:13:30.000   2479226.5709  -5551499.1605  -2948139.8395   0   0      nan      nan      nan      nan      nan      nan   0.00    0.0
2016/01/01 00:13:40.000   2489975.1787  -5582826.8715  -2878826.7490   0   0      nan      nan      nan      nan      nan      nan   0.00    0.0
2016/01/01 00:13:50.000   2500358.3626  -5613451.6464  -2809140.6469   0   0      nan      nan      nan      nan      nan      nan   0.00    0.0
2016/01/01 00:14:00.000   2510375.4851  -5643368.9794  -2739090.4788   0   0      nan      nan      nan      nan      nan      nan   0.00    0.0
2016/01/01 00:14:10.000   2520026.5811  -5672574.6272  -2668685.3800   0   0      nan      nan      nan      nan      nan      nan   0.00    0.0
2016/01/01 00:14:20.000   2529311.2666  -5701063.5780  -2597934.4571   0   0      nan      nan      nan      nan      nan      nan   0.00    0.0
2016/01/01 00:14:30.000   2538229.2763  -5728831.8738  -2526846.6780   0   0      nan      nan      nan      nan      nan      nan   0.00    0.0
2016/01/01 00:14:40.000   2546780.4852  -5755875.6520  -2455431.4308   0   0      nan      nan      nan      nan      nan      nan   0.00    0.0
2016/01/01 00:14:50.000   2554964.6846  -5782190.1694  -2383697.4324   0   0      nan      nan      nan      nan      nan      nan   0.00    0.0
2016/01/01 00:15:00.000   2562781.9513  -5807771.8059  -2311654.2994   0   0      nan      nan      nan      nan      nan      nan   0.00    0.0
2016/01/01 00:15:10.000   2570232.3646  -5832616.2003  -2239311.3057   0   0      nan      nan      nan      nan      nan      nan   0.00    0.0
2016/01/01 00:15:20.000   2577315.8623  -5856719.9504  -2166677.7766   0   0      nan      nan      nan      nan      nan      nan   0.00    0.0
2016/01/01 00:15:30.000   2584032.7646  -5880078.9386  -2093763.0365   0   0      nan      nan      nan      nan      nan      nan   0.00    0.0
2016/01/01 00:15:40.000   2590383.2028  -5902689.9116  -2020576.8020   0   0      nan      nan      nan      nan      nan      nan   0.00    0.0
2016/01/01 00:15:50.000   2596367.7729  -5924550.2655  -1947128.4795   0   0      nan      nan      nan      nan      nan      nan   0.00    0.0
2016/01/01 00:16:00.000   2601986.2154  -5945654.9359  -1873427.3826   0   0      nan      nan      nan      nan      nan      nan   0.00    0.0
2016/01/01 00:16:10.000   2607239.3555  -5966001.5875  -1799483.1773   0   0      nan      nan      nan      nan      nan      nan   0.00    0.0
2016/01/01 00:16:20.000   2612127.1911  -5985586.6212  -1725305.4131   0   0      nan      nan      nan      nan      nan      nan   0.00    0.0
2016/01/01 00:16:30.000   2616650.2958  -6004406.9591  -1650903.7581   0   0      nan      nan      nan      nan      nan      nan   0.00    0.0
2016/01/01 00:16:40.000   2620809.1014  -6022459.5861  -1576287.8947   0   0      nan      nan      nan      nan      nan      nan   0.00    0.0
2016/01/01 00:16:50.000   2624604.2973  -6039741.2798  -1501467.4120   0   0      nan      nan      nan      nan      nan      nan   0.00    0.0
2016/01/01 00:17:00.000   2628036.4864  -6056249.9026  -1426452.0301   0   0      nan      nan      nan      nan      nan      nan   0.00    0.0
2016/01/01 00:17:10.000   2631106.0627  -6071982.1043  -1351251.4101   0   0      nan      nan      nan      nan      nan      nan   0.00    0.0
2016/01/01 00:17:20.000   2633814.2686  -6086935.4472  -1275875.3664   0   0      nan      nan      nan      nan      nan      nan   0.00    0.0
2016/01/01 00:17:30.000   2636161.3738  -6101108.4364  -1200333.6615   0   0      nan      nan      nan      nan      nan      nan   0.00    0.0
2016/01/01 00:17:40.000   2638147.5301  -6114491.8803  -1124635.3241   0   0      nan      nan      nan      nan      nan      nan   0.00    0.0
2016/01/01 00:17:50.000   2639775.3543  -6127098.0814  -1048791.8516   0   0      nan      nan      nan      nan      nan      nan   0.00    0.0
2016/01/01 00:18:00.000   2641044.4362  -6138911.4125   -972811.7271   0   0      nan      nan      nan      nan      nan      nan   0.00    0.0
2016/01/01 00:18:10.000   2641956.3008  -6149935.2546   -896705.2282   0   0      nan      nan      nan      nan      nan      nan   0.00    0.0
2016/01/01 00:18:20.000   2642511.7429  -6160166.4044   -820482.2474   0   0      nan      nan      nan      nan      nan      nan   0.00    0.0
2016/01/01 00:18:30.000   2642711.9268  -6169603.3466   -744152.6523   0   0      nan      nan      nan      nan      nan      nan   0.00    0.0
2016/01/01 00:18:40.000   2642557.5198  -6178242.8240   -667726.0994   0   0      nan      nan      nan      nan      nan      nan   0.00    0.0
2016/01/01 00:18:50.000   2642049.6983  -6186080.0009   -591212.3771   0   0      nan      nan      nan      nan      nan      nan   0.00    0.0
2016/01/01 00:19:00.000   2641191.2004  -6193129.5251   -514622.8302   0   0      nan      nan      nan      nan      nan      nan   0.00    0.0
2016/01/01 00:19:10.000   2639981.3927  -6199371.2996   -437965.2882   0   0      nan      nan      nan      nan      nan      nan   0.00    0.0
2016/01/01 00:19:20.000   2638421.5657  -6204806.0452   -361251.5449   0   0      nan      nan      nan      nan      nan      nan   0.00    0.0
2016/01/01 00:19:30.000   2636514.2851  -6209442.0240   -284490.4262   0   0      nan      nan      nan      nan      nan      nan   0.00    0.0
2016/01/01 00:19:40.000   2634260.2946  -6213272.8003   -207692.3060   0   0      nan      nan      nan      nan      nan      nan   0.00    0.0
2016/01/01 00:19:50.000   2631661.3118  -6216297.7961   -130867.1092   0   0      nan      nan      nan      nan      nan      nan   0.00    0.0
2016/01/01 00:20:00.000   2628718.4082  -6218515.8738    -54024.8830   0   0      nan      nan      nan      nan      nan      nan   0.00    0.0
2016/01/01 00:20:10.000   2625434.8765  -6219937.1938     22825.2047   0   0      nan      nan      nan      nan      nan      nan   0.00    0.0
2016/01/01 00:20:20.000   2621807.2660  -6220526.7873     99669.8959   0   0      nan      nan      nan      nan      nan      nan   0.00    0.0
2016/01/01 00:20:30.000   2617843.8839  -6220332.3691    176503.7137   0   0      nan      nan      nan      nan      nan      nan   0.00    0.0
2016/01/01 00:20:40.000   2613541.5819  -6219314.6580    253313.3592   0   0      nan      nan      nan      nan      nan      nan   0.00    0.0
2016/01/01 00:20:50.000   2608901.3999  -6217472.5974    330088.5932   0   0      nan      nan      nan      nan      nan      nan   0.00    0.0
2016/01/01 00:21:00.000   2603929.9356  -6214835.1726    406822.2576   0   0      nan      nan      nan      nan      nan      nan   0.00    0.0
2016/01/01 00:21:10.000   2598626.2784  -6211387.2795    483503.1094   0   0      nan      nan      nan      nan      nan      nan   0.00    0.0
2016/01/01 00:21:20.000   2592992.6496  -6207128.9703    560121.1687   0   0      nan      nan      nan      nan      nan      nan   0.00    0.0
2016/01/01 00:21:30.000   2587030.8091  -6202060.4442    636666.2390   0   0      nan      nan      nan      nan      nan      nan   0.00    0.0
2016/01/01 00:21:40.000   2580742.6396  -6196181.2804    713128.5435   0   0      nan      nan      nan      nan      nan      nan   0.00    0.0
2016/01/01 00:21:50.000   2574130.0855  -6189492.1447    789497.8724   0   0      nan      nan      nan      nan      nan      nan   0.00    0.0
2016/01/01 00:22:00.000   2567195.2136  -6181993.2236    865764.5369   0   0      nan      nan      nan      nan      nan      nan   0.00    0.0
2016/01/01 00:22:10.000   2559940.5261  -6173685.5182    941918.5340   0   0      nan      nan      nan      nan      nan      nan   0.00    0.0
2016/01/01 00:22:20.000   2552367.4514  -6164568.8257   1017949.7671   0   0      nan      nan      nan      nan      nan      nan   0.00    0.0
2016/01/01 00:22:30.000   2544478.2821  -6154643.9937   1093848.5066   0   0      nan      nan      nan      nan      nan      nan   0.00    0.0
2016/01/01 00:22:40.000   2536275.1186  -6143911.6339   1169604.8722   0   0      nan      nan      nan      nan      nan      nan   0.00    0.0
2016/01/01 00:22:50.000   2527760.5894  -6132373.4652   1245208.9828   0   0      nan      nan      nan      nan      nan      nan   0.00    0.0
2016/01/01 00:23:00.000   2518936.6183  -6120029.5584   1320650.8987   0   0      nan      nan      nan      nan      nan      nan   0.00    0.0
2016/01/01 00:23:10.000   2509805.5649  -6106881.4965   1395920.9973   0   0      nan      nan      nan      nan      nan      nan   0.00    0.0
2016/01/01 00:23:20.000   2500369.6035  -6092930.1435   1471009.3974   0   0      nan      nan      nan      nan      nan      nan   0.00    0.0
2016/01/01 00:23:30.000   2490631.2664  -6078177.2421   1545906.3145   0   0      nan      nan      nan      nan      nan      nan   0.00    0.0
2016/01/01 00:23:40.000   2480593.2770  -6062624.1250   1620601.9734   0   0      nan      nan      nan      nan      nan      nan   0.00    0.0
2016/01/01 00:23:50.000   2470257.7181  -6046272.1580   1695086.5019   0   0      nan      nan      nan      nan      nan      nan   0.00    0.0
2016/01/01 00:24:00.000   2459627.1793  -6029123.3550   1769350.4093   0   0      nan      nan      nan      nan      nan      nan   0.00    0.0
2016/01/01 00:24:10.000   2448704.4573  -6011179.3422   1843383.8982   0   0      nan      nan      nan      nan      nan      nan   0.00    0.0
2016/01/01 00:24:20.000   2437491.7164  -5992442.0176   1917177.2836   0   0      nan      nan      nan      nan      nan      nan   0.00    0.0
2016/01/01 00:24:30.000   2425991.6022  -5972913.0673   1990720.9978   0   0      nan      nan      nan      nan      nan      nan   0.00    0.0
2016/01/01 00:24:40.000   2414206.0023  -5952593.3383   2064004.8122   0   0      nan      nan      nan      nan      nan      nan   0.00    0.0
2016/01/01 00:24:50.000   2402139.0947  -5931487.8139   2137020.2923   0   0      nan      nan      nan      nan      nan      nan   0.00    0.0
2016/01/01 00:25:00.000   2389792.8661  -5909597.1766   2209757.3837   0   0      nan      nan      nan      nan      nan      nan   0.00    0.0
2016/01/01 00:25:10.000   2377170.8849  -5886925.6474   2282207.2772   0   1      nan      nan      nan      nan      nan      nan   0.00    0.0
2016/01/01 00:25:20.000   2364273.7068  -5863471.5923   2354358.8151   0   0      nan      nan      nan      nan      nan      nan   0.00    0.0
2016/01/01 00:25:30.000   2351105.9955  -5839241.2726   2426204.3411   0   0      nan      nan      nan      nan      nan      nan   0.00    0.0
2016/01/01 00:25:40.000   2337670.1633  -5814236.3979   2497733.7347   0   0      nan      nan      nan      nan      nan      nan   0.00    0.0
2016/01/01 00:25:50.000   2323969.0733  -5788459.8001   2568937.9729   0   0      nan      nan      nan      nan      nan      nan   0.00    0.0
2016/01/01 00:26:00.000   2310005.5381  -5761914.1155   2639807.4433   0   0      nan      nan      nan      nan      nan      nan   0.00    0.0
2016/01/01 00:26:10.000   2295782.1740  -5734602.6481   2710333.2051   0   0      nan      nan      nan      nan      nan      nan   0.00    0.0
2016/01/01 00:26:20.000   2281302.7475  -5706528.7016   2780505.8999   0   0      nan      nan      nan      nan      nan      nan   0.00    0.0
2016/01/01 00:26:30.000   2266569.6338  -5677695.6764   2850316.5030   0   0      nan      nan      nan      nan      nan      nan   0.00    0.0
2016/01/01 00:26:40.000   2251585.9619  -5648106.1810   2919755.5744   0   0      nan      nan      nan      nan      nan      nan   0.00    0.0
2016/01/01 00:26:50.000   2236354.8117  -5617764.8444   2988814.8079   0   0      nan      nan      nan      nan      nan      nan   0.00    0.0
2016/01/01 00:27:00.000   2220879.2559  -5586674.2356   3057484.6780   0   0      nan      nan      nan      nan      nan      nan   0.00    0.0
2016/01/01 00:27:10.000   2205162.2083  -5554838.0383   3125756.3334   0   0      nan      nan      nan      nan      nan      nan   0.00    0.0
2016/01/01 00:27:20.000   2189206.9425  -5522260.4114   3193620.8472   0   0      nan      nan      nan      nan      nan      nan   0.00    0.0
2016/01/01 00:27:30.000   2173016.5349  -5488945.0900   3261069.3960   0   0      nan      nan      nan      nan      nan      nan   0.00    0.0
2016/01/01 00:27:40.000   2156594.3621  -5454896.0387   3328093.0001   0   0      nan      nan      nan      nan      nan      nan   0.00    0.0
2016/01/01 00:27:50.000   2139943.3720  -5420117.1735   3394683.0914   0   0      nan      nan      nan      nan      nan      nan   0.00    0.0
2016/01/01 00:28:00.000   2123066.7716  -5384612.9549   3460831.1422   0   0      nan      nan      nan      nan      nan      nan   0.00    0.0
2016/01/01 00:28:10.000   2105968.0623  -5348387.6110   3526528.3323   0   0      nan      nan      nan      nan      nan      nan   0.00    0.0
2016/01/01 00:28:20.000   2088650.1478  -5311445.1976   3591766.1739   0   0      nan      nan      nan      nan      nan      nan   0.00    0.0
2016/01/01 00:28:30.000   2071116.6213  -5273790.4111   3656536.0357   0   0      nan      nan      nan      nan      nan      nan   0.00    0.0
2016/01/01 00:28:40.000   2053370.5634  -5235428.0092   3720830.0001   0   0      nan      nan      nan      nan      nan      nan   0.00    0.0
2016/01/01 00:28:50.000   2035415.3863  -5196362.3638   3784639.2012   0   0      nan      nan      nan      nan      nan      nan   0.00    0.0
2016/01/01 00:29:00.000   2017254.5394  -5156598.2540   3847955.2269   0   0      nan      nan      nan      nan      nan      nan   0.00    0.0
2016/01/01 00:29:10.000   1998891.1296  -5116140.3223   3910770.3266   0   0      nan      nan      nan      nan      nan      nan   0.00    0.0
2016/01/01 00:29:20.000   1980328.8128  -5074994.0731   3973075.9527   0   0      nan      nan      nan      nan      nan      nan   0.00    0.0
2016/01/01 00:29:30.000   1961570.7419  -5033164.1639   4034864.3580   0   0      nan      nan      nan      nan      nan      nan   0.00    0.0
2016/01/01 00:29:40.000   1942620.6530  -4990655.7942   4096126.9646   0   0      nan      nan      nan      nan      nan      nan   0.00    0.0
2016/01/01 00:29:50.000   1923481.7193  -4947474.2945   4156856.4604   0   0      nan      nan      nan      nan      nan      nan   0.00    0.0
2016/01/01 00:30:00.000   1904157.4852  -4903624.8308   4217044.2790   0   0      nan      nan      nan      nan      nan      nan   0.00    0.0
2016/01/01 00:30:10.000   1884651.4441  -4859112.7403   4276683.0085   0   0      nan      nan      nan      nan      nan      nan   0.00    0.0
2016/01/01 00:30:20.000   1864967.2075  -4813943.8735   4335765.0591   0   0      nan      nan      nan      nan      nan      nan   0.00    0.0
2016/01/01 00:30:30.000   1845107.9645  -4768123.6436   4394282.3802   0   0      nan      nan      nan      nan      nan      nan   0.00    0.0
2016/01/01 00:30:40.000   1825077.6043  -4721657.4021   4452227.0326   0   0      nan      nan      nan      nan      nan      nan   0.00    0.0
2016/01/01 00:30:50.000   1804879.4697  -4674551.6751   4509592.1528   0   0      nan      nan      nan      nan      nan      nan   0.00    0.0
2016/01/01 00:31:00.000   1784517.0984  -4626811.5557   4566369.6864   0   0      nan      nan      nan      nan      nan      nan   0.00    0.0
2016/01/01 00:31:10.000   1763994.0873  -4578443.4220   4622552.8074   0   0      nan      nan      nan      nan      nan      nan   0.00    0.0
2016/01/01 00:31:20.000   1743313.8830  -4529453.2697   4678133.7997   0   0      nan      nan      nan      nan      nan      nan   0.00    0.0
2016/01/01 00:31:30.000   1722480.3206  -4479847.3313   4733106.2380   0   0      nan      nan      nan      nan      nan      nan   0.00    0.0
2016/01/01 00:31:40.000   1701496.5862  -4429631.2715   4787461.8956   0   0      nan      nan      nan      nan      nan      nan   0.00    0.0
2016/01/01 00:31:50.000   1680366.6735  -4378811.9323   4841194.3146   0   0      nan      nan      nan      nan      nan      nan   0.00    0.0
2016/01/01 00:32:00.000   1659094.1338  -4327395.4757   4894296.5823   0   0      nan      nan      nan      nan      nan      nan   0.00    0.0
2016/01/01 00:32:10.000   1637682.4361  -4275388.5044   4946761.7166   0   0      nan      nan      nan      nan      nan      nan   0.00    0.0
2016/01/01 00:32:20.000   1616135.2097  -4222797.2608   4998582.2367   0   0      nan      nan      nan      nan      nan      nan   0.00    0.0
2016/01/01 00:32:30.000   1594456.1313  -4169628.6092   5049752.3856   0   0      nan      nan      nan      nan      nan      nan   0.00    0.0
2016/01/01 00:32:40.000   1572648.9840  -4115889.1213   5100264.8199   0   0      nan      nan      nan      nan      nan      nan   0.00    0.0
2016/01/01 00:32:50.000   1550717.0983  -4061586.4738   5150115.0144   0   0      nan      nan      nan      nan      nan      nan   0.00    0.0
2016/01/01 00:33:00.000   1528664.9014  -4006725.3741   5199291.5995   0   0      nan      nan      nan      nan      nan      nan   0.00    0.0
2016/01/01 00:33:10.000   1506495.0914  -3951314.5600   5247792.9986   0   0      nan      nan      nan      nan      nan      nan   0.00    0.0
2016/01/01 00:33:20.000   1484212.0855  -3895360.8326   5295611.6366   0   0      nan      nan      nan      nan      nan      nan   0.00    0.0
2016/01/01 00:33:30.000   1461818.4885  -3838872.0846   5342743.4740   0   1      nan      nan      nan      nan      nan      nan   0.00    0.0
2016/01/01 00:33:40.000   1439319.9234  -3781852.2368   5389174.7029   0   0      nan      nan      nan      nan      nan      nan   0.00    0.0
2016/01/01 00:33:50.000   1416718.3741  -3724311.7971   5434907.1604   0   0      nan      nan      nan      nan      nan      nan   0.00    0.0
2016/01/01 00:34:00.000   1394017.8610  -3666256.9638   5479932.3118   0   0      nan      nan      nan      nan      nan      nan   0.00    0.0
2016/01/01 00:34:10.000   1371222.3440  -3607694.8089   5524243.8552   0   0      nan      nan      nan      nan      nan      nan   0.00    0.0
2016/01/01 00:34:20.000   1348335.2815  -3548632.9907   5567836.6352   0   0      nan      nan      nan      nan      nan      nan   0.00    0.0
2016/01/01 00:34:30.000   1325360.1680  -3489078.7260   5610704.2382   0   0      nan      nan      nan      nan      nan      nan   0.00    0.0
2016/01/01 00:34:40.000   1302301.4519  -3429040.6564   5652842.3676   0   0      nan      nan      nan      nan      nan      nan   0.00    0.0
2016/01/01 00:34:50.000   1279162.2212  -3368525.5610   5694244.2777   0   0      nan      nan      nan      nan      nan      nan   0.00    0.0
2016/01/01 00:35:00.000   1255946.5084  -3307541.4581   5734905.1879   0   0      nan      nan      nan      nan      nan      nan   0.00    0.0
2016/01/01 00:35:10.000   1232657.6984  -3246096.0101   5774819.9238   0   0      nan      nan      nan      nan      nan      nan   0.00    0.0
2016/01/01 00:35:20.000   1209299.5883  -3184197.1117   5813983.0694   0   0      nan      nan      nan      nan      nan      nan   0.00    0.0
2016/01/01 00:35:30.000   1185875.9027  -3121852.8278   5852389.8545   0   0      nan      nan      nan      nan      nan      nan   0.00    0.0
2016/01/01 00:35:40.000   1162390.2646  -3059070.9239   5890035.3265   0   0      nan      nan      nan      nan      nan      nan   0.00    0.0
2016/01/01 00:35:50.000   1138846.2252  -2995859.3385   5926914.1354   0   0      nan      nan      nan      nan      nan      nan   0.00    0.0
2016/01/01 00:36:00.000   1115247.5427  -2932226.4139   5963021.9554   0   0      nan      nan      nan      nan      nan      nan   0.00    0.0
2016/01/01 00:36:10.000   1091597.9916  -2868180.1997   5998353.7807   0   0      nan      nan      nan      nan      nan      nan   0.00    0.0
2016/01/01 00:36:20.000   1067901.1533  -2803728.5692   6032905.4453   0   0      nan      nan      nan      nan      nan      nan   0.00    0.0
2016/01/01 00:36:30.000   1044160.6542  -2738880.1784   6066672.4329   0   0      nan      nan      nan      nan      nan      nan   0.00    0.0
2016/01/01 00:36:40.000   1020380.0942  -2673643.4578   6099650.2316   0   0      nan      nan      nan      nan      nan      nan   0.00    0.0
2016/01/01 00:36:50.000    996563.1590  -2608026.5011   6131834.6641   0   1      nan      nan      nan      nan      nan      nan   0.00    0.0
2016/01/01 00:37:00.000    972713.3901  -2542037.9980   6163221.4010   0   1      nan      nan      nan      nan      nan      nan   0.00    0.0
2016/01/01 00:37:10.000    948834.6936  -2475686.1728   6193806.2486   0   0      nan      nan      nan      nan      nan      nan   0.00    0.0
2016/01/01 00:37:20.000    924930.2907  -2408980.1963   6223586.1987   0   0      nan      nan      nan      nan      nan      nan   0.00    0.0
2016/01/01 00:37:30.000    901004.1508  -2341927.9060   6252555.2016   0   0      nan      nan      nan      nan      nan      nan   0.00    0.0
2016/01/01 00:37:40.000    877059.7354  -2274538.2462   6280711.3506   0   0      nan      nan      nan      nan      nan      nan   0.00    0.0
2016/01/01 00:37:50.000    853100.7546  -2206819.8787   6308050.7743   0   0      nan      nan      nan      nan      nan      nan   0.00    0.0
2016/01/01 00:38:00.000    829130.3042  -2138781.4826   6334570.1236   0   0      nan      nan      nan      nan      nan      nan   0.00    0.0
2016/01/01 00:38:10.000    805152.5814  -2070431.7874   6360265.1080   0   0      nan      nan      nan      nan      nan      nan   0.00    0.0
2016/01/01 00:38:20.000    781170.6190  -2001780.0460   6385134.3205   0   0      nan      nan      nan      nan      nan      nan   0.00    0.0
2016/01/01 00:38:30.000    757187.9088  -1932834.3368   6409172.1261   0   0      nan      nan      nan      nan      nan      nan   0.00    0.0
2016/01/01 00:38:40.000    733208.4407  -1863604.1183   6432376.5610   0   0      nan      nan      nan      nan      nan      nan   0.00    0.0
2016/01/01 00:38:50.000    709235.2442  -1794098.0350   6454744.1949   0   0      nan      nan      nan      nan      nan      nan   0.00    0.0
2016/01/01 00:39:00.000    685272.1757  -1724325.3368   6476272.9040   0   0      nan      nan      nan      nan      nan      nan   0.00    0.0
2016/01/01 00:39:10.000    661322.6969  -1654295.2398   6496959.1253   0   0      nan      nan      nan      nan      nan      nan   0.00    0.0
2016/01/01 00:39:20.000    637390.0468  -1584016.6668   6516800.1611   0   0      nan      nan      nan      nan      nan      nan   0.00    0.0
2016/01/01 00:39:30.000    613477.9149  -1513498.6183   6535793.8364   0   0      nan      nan      nan      nan      nan      nan   0.00    0.0
2016/01/01 00:39:40.000    589589.5504  -1442750.3901   6553938.4281   0   0      nan      nan      nan      nan      nan      nan   0.00    0.0
2016/01/01 00:39:50.000    565728.3832  -1371781.1066   6571230.1727   0   0      nan      nan      nan      nan      nan      nan   0.00    0.0
2016/01/01 00:40:00.000    541897.9712  -1300599.9847   6587668.1754   0   0      nan      nan      nan      nan      nan      nan   0.00    0.0
2016/01/01 00:40:10.000    518101.4975  -1229216.0875   6603249.0979   0   0      nan      nan      nan      nan      nan      nan   0.00    0.0
2016/01/01 00:40:20.000    494342.5837  -1157638.8751   6617971.5942   0   0      nan      nan      nan      nan      nan      nan   0.00    0.0
2016/01/01 00:40:30.000    470624.2567  -1085877.6259   6631833.6445   0   0      nan      nan      nan      nan      nan      nan   0.00    0.0
2016/01/01 00:40:40.000    446949.7947  -1013941.5010   6644833.5288   0   0      nan      nan      nan      nan      nan      nan   0.00    0.0
2016/01/01 00:40:50.000    423322.8652   -941840.0236   6656969.7224   0   0      nan      nan      nan      nan      nan      nan   0.00    0.0
2016/01/01 00:41:00.000    399746.4597   -869582.4126   6668240.4994   0   0      nan      nan      nan      nan      nan      nan   0.00    0.0
2016/01/01 00:41:10.000    376223.9786   -797178.0815   6678643.9046   0   0      nan      nan      nan      nan      nan      nan   0.00    0.0
2016/01/01 00:41:20.000    352758.5181   -724636.7266   6688180.0222   0   0      nan      nan      nan      nan      nan      nan   0.00    0.0
2016/01/01 00:41:30.000    329353.5030   -651967.6311   6696846.0818   0   0      nan      nan      nan      nan      nan      nan   0.00    0.0
2016/01/01 00:41:40.000    306012.1357   -579180.2991   6704642.3443   0   0      nan      nan      nan      nan      nan      nan   0.00    0.0
2016/01/01 00:41:50.000    282737.5080   -506284.1876   6711566.7570   0   0      nan      nan      nan      nan      nan      nan   0.00    0.0
2016/01/01 00:42:00.000    259532.9113   -433288.8364   6717619.0690   0   1      nan      nan      nan      nan      nan      nan   0.00    0.0
2016/01/01 00:42:10.000    236401.4029   -360203.8454   6722798.4096   0   1      nan      nan      nan      nan      nan      nan   0.00    0.0
2016/01/01 00:42:20.000    213345.9998   -287038.6069   6727103.6811   0   1      nan      nan      nan      nan      nan      nan   0.00    0.0
2016/01/01 00:42:30.000    190369.9860   -213802.6989   6730534.5797   0   1      nan      nan      nan      nan      nan      nan   0.00    0.0
2016/01/01 00:42:40.000    167476.3684   -140505.7637   6733091.3119   0   1      nan      nan      nan      nan      nan      nan   0.00    0.0
2016/01/01 00:42:50.000    144667.7674    -67157.1989   6734773.3000   0   1      nan      nan      nan      nan      nan      nan   0.00    0.0
2016/01/01 00:43:00.000    144658.3885    -67152.8310   6734335.0755   0   0      nan      nan      nan      nan      nan      nan   0.00    0.0
2016/01/01 00:43:10.000     99318.4427     79655.8902   6735510.6097   0   0      nan      nan      nan      nan      nan      nan   0.00    0.0
2016/01/01 00:43:20.000     76783.7426    153101.0662   6734565.1224   0   0      nan      nan      nan      nan      nan      nan   0.00    0.0
2016/01/01 00:43:30.000     54346.2447    226559.4347   6732744.3987   0   0      nan      nan      nan      nan      nan      nan   0.00    0.0
2016/01/01 00:43:40.000     32008.9194    300021.1483   6730048.3070   0   0      nan      nan      nan      nan      nan      nan   0.00    0.0
2016/01/01 00:43:50.000      9774.8158    373476.7491   6726481.2765   0   1      nan      nan      nan      nan      nan      nan   0.00    0.0
2016/01/01 00:44:00.000    -12353.9792    446916.1121   6722033.1353   0   0      nan      nan      nan      nan      nan      nan   0.00    0.0
2016/01/01 00:44:10.000    -34373.7906    520329.9999   6716714.5733   0   0      nan      nan      nan      nan      nan      nan   0.00    0.0
2016/01/01 00:44:20.000    -56282.0460    593708.8551   6710523.2828   0   0      nan      nan      nan      nan      nan      nan   0.00    0.0
2016/01/01 00:44:30.000    -78076.1261    667042.8261   6703459.8887   0   0      nan      nan      nan      nan      nan      nan   0.00    0.0
2016/01/01 00:44:40.000    -99753.1489    740322.3558   6695524.6223   0   0      nan      nan      nan      nan      nan      nan   0.00    0.0
2016/01/01 00:44:50.000   -121310.5707    813537.7403   6686718.3552   0   0      nan      nan      nan      nan      nan      nan   0.00    0.0
2016/01/01 00:45:00.000   -142745.3632    886679.8886   6677045.6337   0   0      nan      nan      nan      nan      nan      nan   0.00    0.0
2016/01/01 00:45:10.000   -164055.3908    959738.2603   6666502.8095   0   0      nan      nan      nan      nan      nan      nan   0.00    0.0
2016/01/01 00:45:20.000   -185237.6598   1032704.1267   6655094.5407   0   0      nan      nan      nan      nan      nan      nan   0.00    0.0
2016/01/01 00:45:30.000   -206289.6232   1105567.5575   6642822.2077   0   1      nan      nan      nan      nan      nan      nan   0.00    0.0
2016/01/01 00:45:40.000   -227208.8615   1178318.8529   6629686.2192   0   0      nan      nan      nan      nan      nan      nan   0.00    0.0
2016/01/01 00:45:50.000   -247992.7420   1250948.6838   6615688.5685   0   0      nan      nan      nan      nan      nan      nan   0.00    0.0
2016/01/01 00:46:00.000   -268638.8576   1323447.1353   6600831.2227   0   0      nan      nan      nan      nan      nan      nan   0.00    0.0
2016/01/01 00:46:10.000   -289144.6455   1395804.9210   6585115.9421   0   0      nan      nan      nan      nan      nan      nan   0.00    0.0
2016/01/01 00:46:20.000   -309507.6714   1468012.2829   6568545.4936   0   0      nan      nan      nan      nan      nan      nan   0.00    0.0
2016/01/01 00:46:30.000   -329725.5489   1540059.7527   6551120.8801   0   0      nan      nan      nan      nan      nan      nan   0.00    0.0
2016/01/01 00:46:40.000   -349795.9229   1611937.9473   6532845.1452   0   0      nan      nan      nan      nan      nan      nan   0.00    0.0
2016/01/01 00:46:50.000   -369716.4573   1683637.3055   6513720.2584   0   0      nan      nan      nan      nan      nan      nan   0.00    0.0
2016/01/01 00:47:00.000   -389484.7945   1755148.3027   6493748.9562   0   0      nan      nan      nan      nan      nan      nan   0.00    0.0
2016/01/01 00:47:10.000   -409098.7056   1826461.3432   6472933.2336   0   0      nan      nan      nan      nan      nan      nan   0.00    0.0
2016/01/01 00:47:20.000   -428556.0238   1897567.3001   6451276.6061   0   0      nan      nan      nan      nan      nan      nan   0.00    0.0
2016/01/01 00:47:30.000   -447854.4001   1968456.5306   6428781.4076   0   0      nan      nan      nan      nan      nan      nan   0.00    0.0
2016/01/01 00:47:40.000   -466991.9066   2039119.7355   6405450.7417   0   0      nan      nan      nan      nan      nan      nan   0.00    0.0
2016/01/01 00:47:50.000   -485966.0305   2109547.4056   6381287.5359   0   0      nan      nan      nan      nan      nan      nan   0.00    0.0
2016/01/01 00:48:00.000   -504775.0658   2179730.5351   6356295.2380   0   0      nan      nan      nan      nan      nan      nan   0.00    0.0
2016/01/01 00:48:10.000   -523416.7299   2249659.5024   6330476.4050   0   0      nan      nan      nan      nan      nan      nan   0.00    0.0
2016/01/01 00:48:20.000   -541889.0227   2319325.1932   6303835.3664   0   0      nan      nan      nan      nan      nan      nan   0.00    0.0
2016/01/01 00:48:30.000   -560190.1536   2388718.4674   6276374.5784   0   0      nan      nan      nan      nan      nan      nan   0.00    0.0
2016/01/01 00:48:40.000   -578317.8016   2457829.8439   6248099.2594   0   0      nan      nan      nan      nan      nan      nan   0.00    0.0
2016/01/01 00:48:50.000   -596270.4580   2526650.5652   6219010.9092   0   0      nan      nan      nan      nan      nan      nan   0.00    0.0
2016/01/01 00:49:00.000   -614045.8811   2595171.1709   6189114.2261   0   0      nan      nan      nan      nan      nan      nan   0.00    0.0
2016/01/01 00:49:10.000   -631642.2819   2663382.6395   6158413.5940   0   0      nan      nan      nan      nan      nan      nan   0.00    0.0
2016/01/01 00:49:20.000   -649058.0503   2731275.8813   6126912.1746   0   0      nan      nan      nan      nan      nan      nan   0.00    0.0
2016/01/01 00:49:30.000   -666291.0798   2798841.8856   6094614.6793   0   0      nan      nan      nan      nan      nan      nan   0.00    0.0
2016/01/01 00:49:40.000   -683340.0226   2866071.5996   6061524.7278   0   0      nan      nan      nan      nan      nan      nan   0.00    0.0
2016/01/01 00:49:50.000   -700203.0189   2932956.7449   6027647.6282   0   0      nan      nan      nan      nan      nan      nan   0.00    0.0
2016/01/01 00:50:00.000   -716878.2922   2999487.2427   5992986.2584   0   0      nan      nan      nan      nan      nan      nan   0.00    0.0
2016/01/01 00:50:10.000   -733364.2712   3065654.6472   5957546.2230   0   0      nan      nan      nan      nan      nan      nan   0.00    0.0
2016/01/01 00:50:20.000   -749659.4469   3131450.4531   5921331.9901   0   0      nan      nan      nan      nan      nan      nan   0.00    0.0
2016/01/01 00:50:30.000   -765762.0793   3196865.5722   5884348.1418   0   0      nan      nan      nan      nan      nan      nan   0.00    0.0
2016/01/01 00:50:40.000   -781670.8416   3261891.4790   5846598.9223   0   0      nan      nan      nan      nan      nan      nan   0.00    0.0
2016/01/01 00:50:50.000   -797384.0082   3326519.0755   5808090.0695   0   0      nan      nan      nan      nan      nan      nan   0.00    0.0
2016/01/01 00:51:00.000   -812900.3901   3390740.3469   5768826.1886   0   1      nan      nan      nan      nan      nan      nan   0.00    0.0
2016/01/01 00:51:10.000   -828218.5321   3454546.4764   5728812.5276   0   1      nan      nan      nan      nan      nan      nan   0.00    0.0
2016/01/01 00:51:20.000   -843336.9207   3517928.6703   5688054.0785   0   1      nan      nan      nan      nan      nan      nan   0.00    0.0
2016/01/01 00:51:30.000   -858254.2671   3580878.7330   5646556.3631   0   1      nan      nan      nan      nan      nan      nan   0.00    0.0
2016/01/01 00:51:40.000   -872969.4620   3643388.2193   5604324.4061   0   1      nan      nan      nan      nan      nan      nan   0.00    0.0
2016/01/01 00:51:50.000   -887480.7440   3705448.3909   5561364.0373   0   0      nan      nan      nan      nan      nan      nan   0.00    0.0
2016/01/01 00:52:00.000   -887422.9803   3705208.3136   5561002.0930   0   0      nan      nan      nan      nan      nan      nan   0.00    0.0
2016/01/01 00:52:10.000   -915890.1753   3828192.0014   5473282.4614   0   1      nan      nan      nan      nan      nan      nan   0.00    0.0
2016/01/01 00:52:20.000   -929783.6942   3888855.1539   5428169.8662   0   1      nan      nan      nan      nan      nan      nan   0.00    0.0
2016/01/01 00:52:30.000   -943469.5326   3949037.0087   5382352.1247   0   1      nan      nan      nan      nan      nan      nan   0.00    0.0
2016/01/01 00:52:40.000   -956945.2437   4008726.8686   5335833.0497   0   0      nan      nan      nan      nan      nan      nan   0.00    0.0
2016/01/01 00:52:50.000   -970211.6846   4067920.8615   5288622.0292   0   0      nan      nan      nan      nan      nan      nan   0.00    0.0
2016/01/01 00:53:00.000   -983266.8738   4126609.2946   5240723.8256   0   0      nan      nan      nan      nan      nan      nan   0.00    0.0
2016/01/01 00:53:10.000   -996109.9555   4184783.4230   5192143.7632   0   0      nan      nan      nan      nan      nan      nan   0.00    0.0
2016/01/01 00:53:20.000  -1008740.1197   4242436.0097   5142888.9055   0   0      nan      nan      nan      nan      nan      nan   0.00    0.0
2016/01/01 00:53:30.000  -1021156.2870   4299558.9379   5092965.2976   0   0      nan      nan      nan      nan      nan      nan   0.00    0.0
2016/01/01 00:53:40.000  -1033357.6332   4356144.6485   5042379.3802   0   0      nan      nan      nan      nan      nan      nan   0.00    0.0
2016/01/01 00:53:50.000  -1045343.5251   4412185.6563   4991138.1219   0   0      nan      nan      nan      nan      nan      nan   0.00    0.0
2016/01/01 00:54:00.000  -1057112.9474   4467674.3361   4939247.9386   0   0      nan      nan      nan      nan      nan      nan   0.00    0.0
2016/01/01 00:54:10.000  -1068665.3959   4522603.1072   4886715.3984   0   0      nan      nan      nan      nan      nan      nan   0.00    0.0
2016/01/01 00:54:20.000  -1080000.3432   4576964.9980   4833547.7566   0   0      nan      nan      nan      nan      nan      nan   0.00    0.0
2016/01/01 00:54:30.000  -1091116.8528   4630751.8653   4779751.5630   0   1      nan      nan      nan      nan      nan      nan   0.00    0.0
2016/01/01 00:54:40.000  -1102014.6234   4683957.1422   4725333.8481   0   1      nan      nan      nan      nan      nan      nan   0.00    0.0
2016/01/01 00:54:50.000  -1112692.8376   4736573.5795   4670301.8302   0   1      nan      nan      nan      nan      nan      nan   0.00    0.0
2016/01/01 00:55:00.000  -1123151.0932   4788593.6259   4614662.7732   0   1      nan      nan      nan      nan      nan      nan   0.00    0.0
2016/01/01 00:55:10.000  -1123077.9734   4788283.2971   4614362.3868   0   0      nan      nan      nan      nan      nan      nan   0.00    0.0
2016/01/01 00:55:20.000  -1143406.4208   4890819.4747   4501592.5053   0   1      nan      nan      nan      nan      nan      nan   0.00    0.0
2016/01/01 00:55:30.000  -1153202.2609   4941008.8769   4444174.8190   0   1      nan      nan      nan      nan      nan      nan   0.00    0.0
2016/01/01 00:55:40.000  -1162776.4746   4990574.4681   4386179.4206   0   1      nan      nan      nan      nan      nan      nan   0.00    0.0
2016/01/01 00:55:50.000  -1172128.5973   5039508.7179   4327613.3485   0   0      nan      nan      nan      nan      nan      nan   0.00    0.0
2016/01/01 00:56:00.000  -1181258.6607   5087806.9185   4268485.1027   0   0      nan      nan      nan      nan      nan      nan   0.00    0.0
2016/01/01 00:56:10.000  -1190166.3366   5135461.5075   4208801.8969   0   0      nan      nan      nan      nan      nan      nan   0.00    0.0
2016/01/01 00:56:20.000  -1198851.2245   5182465.7660   4148571.5398   0   0      nan      nan      nan      nan      nan      nan   0.00    0.0
2016/01/01 00:56:30.000  -1207313.2696   5228813.1731   4087801.3111   0   0      nan      nan      nan      nan      nan      nan   0.00    0.0
2016/01/01 00:56:40.000  -1215552.2886   5274498.0390   4026499.8787   0   0      nan      nan      nan      nan      nan      nan   0.00    0.0
2016/01/01 00:56:50.000  -1223568.2109   5319513.4224   3964674.9677   0   0      nan      nan      nan      nan      nan      nan   0.00    0.0
2016/01/01 00:57:00.000  -1231361.0639   5363853.5640   3902334.5862   0   0      nan      nan      nan      nan      nan      nan   0.00    0.0
2016/01/01 00:57:10.000  -1238930.6020   5407512.3329   3839486.6995   0   0      nan      nan      nan      nan      nan      nan   0.00    0.0
2016/01/01 00:57:20.000  -1246277.1692   5450483.8080   3776139.6782   0   0      nan      nan      nan      nan      nan      nan   0.00    0.0
2016/01/01 00:57:30.000  -1253400.4902   5492761.5398   3712301.3971   0   0      nan      nan      nan      nan      nan      nan   0.00    0.0
2016/01/01 00:57:40.000  -1260301.0449   5534340.7368   3647980.5046   0   0      nan      nan      nan      nan      nan      nan   0.00    0.0
2016/01/01 00:57:50.000  -1266978.5763   5575214.9708   3583185.3275   0   0      nan      nan      nan      nan      nan      nan   0.00    0.0
2016/01/01 00:58:00.000  -1273433.6247   5615379.0685   3517924.3104   0   0      nan      nan      nan      nan      nan      nan   0.00    0.0
2016/01/01 00:58:10.000  -1279666.0688   5654827.6933   3452205.9267   0   0      nan      nan      nan      nan      nan      nan   0.00    0.0
2016/01/01 00:58:20.000  -1285676.3271   5693554.5027   3386038.4003   0   0      nan      nan      nan      nan      nan      nan   0.00    0.0
2016/01/01 00:58:30.000  -1291464.5846   5731555.1251   3319430.7671   0   0      nan      nan      nan      nan      nan      nan   0.00    0.0
2016/01/01 00:58:40.000  -1297031.2563   5768824.2395   3252391.5433   0   0      nan      nan      nan      nan      nan      nan   0.00    0.0
2016/01/01 00:58:50.000  -1302376.9174   5805356.4135   3184929.3645   0   0      nan      nan      nan      nan      nan      nan   0.00    0.0
2016/01/01 00:59:00.000  -1307501.3418   5841146.9346   3117053.2302   0   0      nan      nan      nan      nan      nan      nan   0.00    0.0
2016/01/01 00:59:10.000  -1312405.4416   5876190.1740   3048771.7546   0   0      nan      nan      nan      nan      nan      nan   0.00    0.0
2016/01/01 00:59:20.000  -1317089.7910   5910482.1867   2980093.7360   0   0      nan      nan      nan      nan      nan      nan   0.00    0.0
2016/01/01 00:59:30.000  -1321554.1932   5944017.7532   2911028.5149   0   0      nan      nan      nan      nan      nan      nan   0.00    0.0
2016/01/01 00:59:40.000  -1325799.8695   5976792.1604   2841584.5876   0   0      nan      nan      nan      nan      nan      nan   0.00    0.0
2016/01/01 00:59:50.000  -1329827.1863   6008800.8376   2771771.3626   0   0      nan      nan      nan      nan      nan      nan   0.00    0.0
2016/01/01 01:00:00.000  -1333636.7510   6040039.9925   2701597.6830   0   0      nan      nan      nan      nan      nan      nan   0.00    0.0
2016/01/01 01:00:10.000  -1337229.3140   6070504.6878   2631073.0353   0   0      nan      nan      nan      nan      nan      nan   0.00    0.0
2016/01/01 01:00:20.000  -1340605.3268   6100189.9525   2560205.5878   0   0      nan      nan      nan      nan      nan      nan   0.00    0.0
2016/01/01 01:00:30.000  -1343765.3521   6129092.9558   2489005.7850   0   0      nan      nan      nan      nan      nan      nan   0.00    0.0
2016/01/01 01:00:40.000  -1346710.4445   6157209.3680   2417482.4973   0   0      nan      nan      nan      nan      nan      nan   0.00    0.0
2016/01/01 01:00:50.000  -1349441.3001   6184534.9442   2345644.9423   0   0      nan      nan      nan      nan      nan      nan   0.00    0.0
2016/01/01 01:01:00.000  -1351958.6862   6211066.0033   2273502.4664   0   0      nan      nan      nan      nan      nan      nan   0.00    0.0
2016/01/01 01:01:10.000  -1354263.1872   6236798.9890   2201064.4239   0   0      nan      nan      nan      nan      nan      nan   0.00    0.0
2016/01/01 01:01:20.000  -1356356.1349   6261729.7914   2128340.3250   0   1      nan      nan      nan      nan      nan      nan   0.00    0.0
2016/01/01 01:01:30.000  -1358238.3006   6285855.5888   2055339.6277   0   1      nan      nan      nan      nan      nan      nan   0.00    0.0
2016/01/01 01:01:40.000  -1359910.4820   6309172.3114   1982071.7168   0   1      nan      nan      nan      nan      nan      nan   0.00    0.0
2016/01/01 01:01:50.000  -1361373.9776   6331677.5881   1908546.3222   0   1      nan      nan      nan      nan      nan      nan   0.00    0.0
2016/01/01 01:02:00.000  -1362629.3647   6353367.3101   1834772.8226   0   0      nan      nan      nan      nan      nan      nan   0.00    0.0
2016/01/01 01:02:10.000  -1363678.0308   6374238.9538   1760760.8451   0   0      nan      nan      nan      nan      nan      nan   0.00    0.0
2016/01/01 01:02:20.000  -1364520.1775   6394287.9325   1686519.9830   0   0      nan      nan      nan      nan      nan      nan   0.00    0.0
2016/01/01 01:02:30.000  -1365158.2912   6413518.4754   1612060.0185   0   1      nan      nan      nan      nan      nan      nan   0.00    0.0
2016/01/01 01:02:40.000  -1365592.9697   6431917.7925   1537390.6031   0   1      nan      nan      nan      nan      nan      nan   0.00    0.0
2016/01/01 01:02:50.000  -1365824.7532   6449483.4886   1462521.0605   0   0      nan      nan      nan      nan      nan      nan   0.00    0.0
2016/01/01 01:03:00.000  -1365855.6351   6466221.8409   1387461.6159   0   0      nan      nan      nan      nan      nan      nan   0.00    0.0
2016/01/01 01:03:10.000  -1365686.6072   6482125.6187   1312222.0420   0   0      nan      nan      nan      nan      nan      nan   0.00    0.0
2016/01/01 01:03:20.000  -1365318.7347   6497192.6007   1236811.8658   0   1      nan      nan      nan      nan      nan      nan   0.00    0.0
2016/01/01 01:03:30.000  -1364753.3963   6511420.7797   1161241.0580   0   0      nan      nan      nan      nan      nan      nan   0.00    0.0
2016/01/01 01:03:40.000  -1363991.7613   6524807.9850   1085519.4382   0   0      nan      nan      nan      nan      nan      nan   0.00    0.0
2016/01/01 01:03:50.000  -1363035.2459   6537351.7588   1009656.6757   0   0      nan      nan      nan      nan      nan      nan   0.00    0.0
2016/01/01 01:04:00.000  -1361887.2975   6549055.5662    933663.1644   0   1      nan      nan      nan      nan      nan      nan   0.00    0.0
2016/01/01 01:04:10.000  -1360543.5898   6559903.9199    857547.7491   0   0      nan      nan      nan      nan      nan      nan   0.00    0.0
2016/01/01 01:04:20.000  -1359011.1045   6569908.4944    781321.2747   0   0      nan      nan      nan      nan      nan      nan   0.00    0.0
2016/01/01 01:04:30.000  -1357289.2151   6579063.2183    704993.2290   0   0      nan      nan      nan      nan      nan      nan   0.00    0.0
2016/01/01 01:04:40.000  -1355379.7231   6587367.2706    628573.6454   0   0      nan      nan      nan      nan      nan      nan   0.00    0.0
2016/01/01 01:04:50.000  -1353283.8450   6594818.5070    552072.4689   0   0      nan      nan      nan      nan      nan      nan   0.00    0.0
2016/01/01 01:05:00.000  -1351003.2172   6601416.1640    475499.5067   0   0      nan      nan      nan      nan      nan      nan   0.00    0.0
2016/01/01 01:05:10.000  -1348539.4773   6607159.5424    398864.9695   0   0      nan      nan      nan      nan      nan      nan   0.00    0.0
2016/01/01 01:05:20.000  -1345894.1303   6612047.2396    322178.2949   0   0      nan      nan      nan      nan      nan      nan   0.00    0.0
2016/01/01 01:05:30.000  -1343068.7295   6616077.9923    245449.8311   0   0      nan      nan      nan      nan      nan      nan   0.00    0.0
2016/01/01 01:05:40.000  -1340065.0283   6619251.7412    168689.4833   0   0      nan      nan      nan      nan      nan      nan   0.00    0.0
2016/01/01 01:05:50.000  -1336884.5759   6621567.6788     91907.3308   0   0      nan      nan      nan      nan      nan      nan   0.00    0.0
2016/01/01 01:06:00.000  -1333529.0554   6623025.2912     15113.1932   0   0      nan      nan      nan      nan      nan      nan   0.00    0.0
2016/01/01 01:06:10.000  -1330000.3394   6623624.3570    -61682.7010   0   0      nan      nan      nan      nan      nan      nan   0.00    0.0
2016/01/01 01:06:20.000  -1326299.9427   6623364.5491   -138470.6639   0   0      nan      nan      nan      nan      nan      nan   0.00    0.0
2016/01/01 01:06:30.000  -1322429.6237   6622245.2181   -215240.6336   0   0      nan      nan      nan      nan      nan      nan   0.00    0.0
2016/01/01 01:06:40.000  -1318391.1499   6620266.7353   -291982.6820   0   0      nan      nan      nan      nan      nan      nan   0.00    0.0
2016/01/01 01:06:50.000  -1314186.3398   6617429.2491   -368686.7477   0   0      nan      nan      nan      nan      nan      nan   0.00    0.0
2016/01/01 01:07:00.000  -1309817.2101   6613733.1335   -445343.1219   0   0      nan      nan      nan      nan      nan      nan   0.00    0.0
2016/01/01 01:07:10.000  -1305285.1722   6609178.1507   -521941.6027   0   0      nan      nan      nan      nan      nan      nan   0.00    0.0
2016/01/01 01:07:20.000  -1300592.2575   6603764.9131   -598472.4168   0   0      nan      nan      nan      nan      nan      nan   0.00    0.0
2016/01/01 01:07:30.000  -1295740.2239   6597494.0085   -674925.6383   0   0      nan      nan      nan      nan      nan      nan   0.00    0.0
2016/01/01 01:07:40.000  -1290731.3189   6590366.4479   -751291.1835   0   0      nan      nan      nan      nan      nan      nan   0.00    0.0
2016/01/01 01:07:50.000  -1285567.2825   6582382.7240   -827559.3461   0   0      nan      nan      nan      nan      nan      nan   0.00    0.0
2016/01/01 01:08:00.000  -1280249.8323   6573543.5975   -903720.2045   0   0      nan      nan      nan      nan      nan      nan   0.00    0.0
2016/01/01 01:08:10.000  -1274781.2681   6563850.3475   -979763.7049   0   0      nan      nan      nan      nan      nan      nan   0.00    0.0
2016/01/01 01:08:20.000  -1269162.9751   6553303.4639  -1055680.3761   0   0      nan      nan      nan      nan      nan      nan   0.00    0.0
