% pos mode  : leo-rdn
% solution  : forward
% elev mask : -5.0 deg
% dynamics  : on
% tidecorr  : off
% tropo opt : off
% ephemeris : broadcast
% antenna1  :                       ( 0.0000  0.0000  0.0000)
%  GPST                      x-ecef(m)      y-ecef(m)      z-ecef(m)   Q  ns   sdx(m)   sdy(m)   sdz(m)  sdxy(m)  sdyz(m)  sdzx(m) age(s)  ratio
2016/01/01 00:00:00.000    528129.9909  -1244433.3338  -6627482.7406   6   8   2.3014   2.4076   8.8291   1.0884  -2.2996  -1.3423   0.00    0.0
2016/01/01 00:00:10.000    562553.0001  -1310966.0143  -6611763.6379   6   8   1.8181   1.9859   6.6984   0.8345  -1.7216  -0.9358   0.00    0.0
2016/01/01 00:00:20.000    596807.4480  -1377381.1824  -6595194.1042   6   8   1.6211   1.8237   5.7832   0.7218  -1.4686  -0.7103   0.00    0.0
2016/01/01 00:00:30.000    630888.7494  -1443670.9003  -6577777.5550   6   8   1.5128   1.7386   5.2596   0.6554  -1.3260  -0.5572   0.00    0.0
2016/01/01 00:00:40.000    664793.2927  -1509825.7431  -6559514.8260   6   8   1.4440   1.6871   4.9157   0.6101  -1.2355  -0.4374   0.00    0.0
2016/01/01 00:00:50.000    698516.5959  -1575837.7543  -6540409.7664   6   8   1.3965   1.6534   4.6703   0.5761  -1.1742  -0.3319   0.00    0.0
2016/01/01 00:01:00.000    732054.6562  -1641697.3356  -6520463.9930   6   8   1.3618   1.6303   4.4852   0.5488  -1.1310  -0.2247   0.00    0.0
2016/01/01 00:01:10.000    765403.4665  -1707396.3744  -6499680.0964   6   8   1.4802   1.6774   5.2279   0.7534  -1.5936  -1.3658   0.00    0.0
2016/01/01 00:01:20.000    798558.9746  -1772926.1279  -6478060.9565   6   8   1.3827   1.6310   4.6389   0.6202  -1.3195  -0.8883   0.00    0.0
2016/01/01 00:01:30.000    831517.2253  -1838277.7095  -6455609.1427   6   8   1.3403   1.6117   4.3787   0.5607  -1.2110  -0.6517   0.00    0.0
2016/01/01 00:01:40.000    864273.8973  -1903442.5278  -6432327.8923   6   7   1.4533   1.6621   5.0724   0.7419  -1.6089  -1.4102   0.00    0.0
2016/01/01 00:01:50.000    896825.5060  -1968411.9828  -6408219.5895   6   8   1.4317   1.6538   4.9283   0.7149  -1.5647  -1.3383   0.00    0.0
2016/01/01 00:02:00.000    929168.2313  -2033177.5166  -6383287.1059   6   8   1.3410   1.6154   4.3727   0.5757  -1.2992  -0.8580   0.00    0.0
2016/01/01 00:02:10.000    961297.9285  -2097730.4472  -6357534.5979   6   8   1.4181   1.6521   4.8228   0.6969  -1.5575  -1.3209   0.00    0.0
2016/01/01 00:02:20.000    993210.8432  -2162061.9184  -6330965.2757   6   9   1.4137   1.7284   4.6932   0.6644  -1.4460  -1.3122   0.00    0.0
2016/01/01 00:02:30.000   1024903.3347  -2226164.1608  -6303580.8513   6   9   1.3205   1.6707   4.1748   0.5670  -1.2051  -0.8509   0.00    0.0
2016/01/01 00:02:40.000   1056371.6437  -2290027.7795  -6275386.0018   6   9   1.2852   1.5616   3.9601   0.5339  -1.0547  -0.6239   0.00    0.0
2016/01/01 00:02:50.000   1087611.9506  -2353644.7341  -6246384.1855   6   8   1.4326   1.6761   4.6953   0.6608  -1.3980  -1.4172   0.00    0.0
2016/01/01 00:03:00.000   1118621.0023  -2417006.6263  -6216579.1721   6   8   1.4332   1.6777   4.6760   0.6517  -1.3994  -1.4209   0.00    0.0
2016/01/01 00:03:10.000   1149395.0202  -2480105.0790  -6185973.9339   6   7   1.4349   1.7091   4.6600   0.6318  -1.4101  -1.4236   0.00    0.0
2016/01/01 00:03:20.000   1179930.1240  -2542931.2052  -6154573.8396   6   7   1.4364   1.7087   4.6458   0.6231  -1.4143  -1.4274   0.00    0.0
2016/01/01 00:03:30.000   1210223.2186  -2605476.8082  -6122381.2336   6   7   1.4383   1.7093   4.6333   0.6144  -1.4196  -1.4312   0.00    0.0
2016/01/01 00:03:40.000   1240270.6833  -2667733.6039  -6089400.8752   6   7   1.4405   1.7105   4.6223   0.6056  -1.4258  -1.4348   0.00    0.0
2016/01/01 00:03:50.000   1270069.0347  -2729693.1413  -6055637.1352   6   7   1.4429   1.7123   4.6126   0.5969  -1.4326  -1.4384   0.00    0.0
2016/01/01 00:04:00.000   1299615.0157  -2791347.1910  -6021094.5939   6   7   1.4455   1.7146   4.6040   0.5882  -1.4400  -1.4419   0.00    0.0
2016/01/01 00:04:10.000   1328905.2417  -2852687.2447  -5985776.6064   6   7   1.4482   1.7172   4.5963   0.5795  -1.4477  -1.4452   0.00    0.0
2016/01/01 00:04:20.000   1357936.3508  -2913705.2239  -5949688.8589   6   7   1.4510   1.7200   4.5894   0.5710  -1.4557  -1.4484   0.00    0.0
2016/01/01 00:04:30.000   1386705.1810  -2974393.0371  -5912833.1658   6   8   1.4537   1.6807   3.9183   0.5543  -1.1136  -1.4314   0.00    0.0
2016/01/01 00:04:40.000   1415208.4116  -3034742.3438  -5875218.4608   6   8   1.4565   1.6534   3.4374   0.5391  -0.8179  -1.4190   0.00    0.0
2016/01/01 00:04:50.000   1443442.9946  -3094745.1419  -5836846.2166   6   8   1.4594   1.6447   3.2535   0.5289  -0.6891  -1.4181   0.00    0.0
2016/01/01 00:05:00.000   1471404.0433  -3154391.5994  -5797721.4871   6   8   3.4771   2.9433   4.1914  -2.6872   2.4230  -3.2606   0.00    0.0
2016/01/01 00:05:10.000   1499092.7373  -3213677.4802  -5757851.9019   6   7   3.7547   3.1196   4.3133  -2.9494   2.6829  -3.5135   0.00    0.0
2016/01/01 00:05:20.000   1526502.7860  -3272592.1153  -5717240.2444   6   8   3.0125   2.5268   3.8660  -2.1470   1.9761  -2.8713   0.00    0.0
2016/01/01 00:05:30.000   1553632.5036  -3331128.0481  -5675892.9085   6   7   4.3196   3.5516   4.5922  -3.5127   3.1989  -4.0074   0.00    0.0
2016/01/01 00:05:40.000   1580477.9738  -3389276.9899  -5633813.7836   6   7   4.3554   3.5576   4.6032  -3.5344   3.2267  -4.0447   0.00    0.0
2016/01/01 00:05:50.000   1607036.7101  -3447031.7365  -5591009.1101   6   7   4.3893   3.5622   4.6180  -3.5541   3.2521  -4.0811   0.00    0.0
2016/01/01 00:06:00.000   1633305.5897  -3504383.0096  -5547483.3963   6   6   4.4048   3.5545   4.6231  -3.5567   3.2611  -4.1006   0.00    0.0
2016/01/01 00:06:10.000   1659282.9299  -3561324.7866  -5503243.6256   6   7   4.3266   3.4860   4.5632  -3.4750   3.1898  -4.0329   0.00    0.0
2016/01/01 00:06:20.000   1684964.5317  -3617848.0145  -5458294.5457   6   6   4.4084   3.5215   4.6215  -3.5371   3.2549  -4.1154   0.00    0.0
2016/01/01 00:06:30.000   1710348.2183  -3673945.4487  -5412641.3756   6   6   4.4108   3.5055   4.6240  -3.5275   3.2519  -4.1237   0.00    0.0
2016/01/01 00:06:40.000   1735431.7507  -3729609.6444  -5366291.1618   6   6   4.4134   3.4899   4.6282  -3.5181   3.2490  -4.1326   0.00    0.0
2016/01/01 00:06:50.000   1760212.1112  -3784832.8580  -5319248.6800   6   6   4.4163   3.4745   4.6340  -3.5089   3.2462  -4.1418   0.00    0.0
2016/01/01 00:07:00.000   1784687.2028  -3839607.4638  -5271520.6811   6   6   4.4195   3.4594   4.6411  -3.4999   3.2435  -4.1516   0.00    0.0
2016/01/01 00:07:10.000   1808853.7225  -3893925.3518  -5223111.9984   6   6   4.4230   3.4447   4.6495  -3.4911   3.2408  -4.1618   0.00    0.0
2016/01/01 00:07:20.000   1832711.3109  -3947780.8841  -5174032.2200   6   7   3.6957   3.2410   3.6143  -3.0641   2.6802  -3.2007   0.00    0.0
2016/01/01 00:07:30.000   1856255.2723  -4001164.8462  -5124284.5362   6   7   3.2981   3.1336   3.0388  -2.8361   2.3771  -2.6480   0.00    0.0
2016/01/01 00:07:40.000   1879483.4142  -4054070.0418  -5073874.4018   6   7   3.1453   3.0874   2.8124  -2.7462   2.2609  -2.4285   0.00    0.0
2016/01/01 00:07:50.000   1902393.9900  -4106489.6277  -5022810.4868   6   8   2.8523   3.0006   2.4524  -2.5698   2.0445  -2.0255   0.00    0.0
2016/01/01 00:08:00.000   1924985.1838  -4158416.7319  -4971098.4885   6   8   2.6805   2.9450   2.2640  -2.4630   1.9245  -1.7934   0.00    0.0
2016/01/01 00:08:10.000   1947253.7233  -4209843.1810  -4918744.7891   6   8   2.6042   2.9174   2.1748  -2.4148   1.8726  -1.6860   0.00    0.0
2016/01/01 00:08:20.000   1969198.4500  -4260762.4110  -4865756.5902   6   8   2.5567   2.8979   2.1189  -2.3836   1.8413  -1.6194   0.00    0.0
2016/01/01 00:08:30.000   1990817.1101  -4311167.7021  -4812140.3076   6   8   2.5224   2.8821   2.0795  -2.3601   1.8196  -1.5724   0.00    0.0
2016/01/01 00:08:40.000   2012106.9516  -4361051.0574  -4757902.4840   6   8   2.4956   2.8684   2.0497  -2.3409   1.8033  -1.5368   0.00    0.0
2016/01/01 00:08:50.000   2033067.0076  -4410406.9194  -4703051.0292   6   8   2.4734   2.8562   2.0263  -2.3245   1.7903  -1.5084   0.00    0.0
2016/01/01 00:09:00.000   2053694.5995  -4459227.5803  -4647592.1626   6   8   2.4546   2.8450   2.0073  -2.3100   1.7796  -1.4850   0.00    0.0
2016/01/01 00:09:10.000   2073988.0612  -4507506.0864  -4591533.1038   6   8   2.4380   2.8347   1.9915  -2.2970   1.7705  -1.4653   0.00    0.0
2016/01/01 00:09:20.000   2093945.4533  -4555235.9777  -4534880.9335   6   8   2.4233   2.8251   1.9782  -2.2851   1.7628  -1.4482   0.00    0.0
2016/01/01 00:09:30.000   2113565.0538  -4602410.4309  -4477642.9580   6   8   2.4100   2.8161   1.9668  -2.2741   1.7560  -1.4333   0.00    0.0
2016/01/01 00:09:40.000   2132845.1674  -4649022.8563  -4419826.8224   6   8   2.3979   2.8077   1.9570  -2.2639   1.7500  -1.4201   0.00    0.0
2016/01/01 00:09:50.000   2151784.2370  -4695066.9869  -4361439.5285   6   8   2.3868   2.7998   1.9484  -2.2543   1.7447  -1.4082   0.00    0.0
2016/01/01 00:10:00.000   2170380.1659  -4740535.3231  -4302488.6548   6   8   2.3765   2.7924   1.9410  -2.2454   1.7400  -1.3975   0.00    0.0
2016/01/01 00:10:10.000   2188632.1437  -4785423.0667  -4242981.9566   6   8   2.3669   2.7855   1.9344  -2.2370   1.7357  -1.3877   0.00    0.0
2016/01/01 00:10:20.000   2206537.8084  -4829722.5499  -4182926.7236   6   8   2.3580   2.7790   1.9287  -2.2291   1.7319  -1.3788   0.00    0.0
2016/01/01 00:10:30.000   2224096.3803  -4873428.1298  -4122330.7345   6   8   2.3497   2.7729   1.9237  -2.2216   1.7285  -1.3705   0.00    0.0
2016/01/01 00:10:40.000   2241305.9233  -4916533.4395  -4061202.0636   6   8   2.3420   2.7672   1.9193  -2.2146   1.7254  -1.3629   0.00    0.0
2016/01/01 00:10:50.000   2258165.4511  -4959032.7042  -3999548.3628   6   8   2.3347   2.7619   1.9155  -2.2080   1.7227  -1.3559   0.00    0.0
2016/01/01 00:11:00.000   2274673.1612  -5000918.9300  -3937377.2040   6   8   2.3279   2.7570   1.9122  -2.2018   1.7203  -1.3493   0.00    0.0
2016/01/01 00:11:10.000   2290828.4217  -5042187.2490  -3874697.0043   6   8   2.3215   2.7526   1.9094  -2.1960   1.7181  -1.3432   0.00    0.0
2016/01/01 00:11:20.000   2306629.7082  -5082831.1295  -3811515.5867   6   8   2.3155   2.7485   1.9069  -2.1905   1.7162  -1.3376   0.00    0.0
2016/01/01 00:11:30.000   2322075.8119  -5122845.1605  -3747841.2467   6   8   2.3099   2.7447   1.9049  -2.1853   1.7146  -1.3322   0.00    0.0
2016/01/01 00:11:40.000   2337165.7279  -5162223.1037  -3683681.9746   6   8   2.3046   2.7414   1.9032  -2.1805   1.7132  -1.3273   0.00    0.0
2016/01/01 00:11:50.000   2351898.4519  -5200959.6347  -3619045.8823   6   8   2.2997   2.7384   1.9019  -2.1761   1.7120  -1.3226   0.00    0.0
2016/01/01 00:12:00.000   2366272.9269  -5239049.0252  -3553941.4803   6   8   2.2952   2.7358   1.9009  -2.1719   1.7111  -1.3182   0.00    0.0
2016/01/01 00:12:10.000   2380288.1817  -5276485.9292  -3488377.4199   6   8   2.2909   2.7336   1.9002  -2.1681   1.7103  -1.3141   0.00    0.0
2016/01/01 00:12:20.000   2393943.5953  -5313265.0505  -3422361.5914   6   8   2.2870   2.7317   1.8998  -2.1646   1.7098  -1.3103   0.00    0.0
2016/01/01 00:12:30.000   2407237.8066  -5349380.0827  -3355902.5544   6   9   2.2710   3.0138   1.9093  -2.1484   1.8754  -1.2588   0.00    0.0
2016/01/01 00:12:40.000   2420170.4969  -5384826.9740  -3289009.2618   6   9   2.2502   2.8326   1.7324  -2.1148   1.6816  -1.1748   0.00    0.0
2016/01/01 00:12:50.000   2420170.1879  -5384827.2286  -3289009.0530   0   0  30.0000  30.0000  30.0000   0.0000   0.0000   0.0000   0.00    0.0
2016/01/01 00:13:00.000   2444947.5982  -5453693.5989  -3153953.5991   6   9   2.2391   2.7681   1.6620  -2.0991   1.6071  -1.1377   0.00    0.0
2016/01/01 00:13:10.000   2456791.3211  -5487104.0769  -3085808.7916   6   9   2.2338   2.7353   1.6263  -2.0916   1.5689  -1.1192   0.00    0.0
2016/01/01 00:13:20.000   2468270.4592  -5519825.5161  -3017264.1570   6   9   2.2299   2.7154   1.6031  -2.0865   1.5447  -1.1065   0.00    0.0
2016/01/01 00:13:30.000   2479384.8035  -5551853.3768  -2948328.6546   6   9   2.2268   2.7022   1.5864  -2.0827   1.5277  -1.0967   0.00    0.0
2016/01/01 00:13:40.000   2490134.1046  -5583183.1043  -2879011.2114   6   9   2.2244   2.6931   1.5736  -2.0798   1.5150  -1.0888   0.00    0.0
2016/01/01 00:13:50.000   2500517.8465  -5613809.5531  -2809320.6336   6   9   2.2225   2.6866   1.5632  -2.0776   1.5051  -1.0821   0.00    0.0
2016/01/01 00:14:00.000   2510535.4246  -5643728.2879  -2739265.9097   6   9   2.2209   2.6821   1.5546  -2.0759   1.4970  -1.0763   0.00    0.0
2016/01/01 00:14:10.000   2520187.0266  -5672935.5745  -2668856.1618   6   9   2.2197   2.6790   1.5473  -2.0747   1.4903  -1.0711   0.00    0.0
2016/01/01 00:14:20.000   2529472.2806  -5701426.3786  -2598100.5504   6   9   2.2189   2.6770   1.5409  -2.0739   1.4847  -1.0665   0.00    0.0
2016/01/01 00:14:30.000   2538390.7742  -5729196.2527  -2527007.9705   6   9   2.2183   2.6760   1.5354  -2.0736   1.4800  -1.0623   0.00    0.0
2016/01/01 00:14:40.000   2546942.5790  -5756241.3127  -2455587.8519   6   9   2.2181   2.6758   1.5305  -2.0736   1.4759  -1.0586   0.00    0.0
2016/01/01 00:14:50.000   2555127.3094  -5782557.7320  -2383849.2866   6   9   2.2183   2.9557   1.5748  -2.0647   1.6296  -1.0495   0.00    0.0
2016/01/01 00:15:00.000   2562945.0354  -5808140.6313  -2311801.6604   6   9   2.2185   2.8143   1.5454  -2.0707   1.5461  -1.0497   0.00    0.0
2016/01/01 00:15:10.000   2570396.0227  -5832986.6244  -2239454.1784   6   9   2.2191   2.7674   1.5334  -2.0735   1.5161  -1.0479   0.00    0.0
2016/01/01 00:15:20.000   2577480.1570  -5857091.7658  -2166816.1571   6   9   2.2200   2.9798   1.5665  -2.0705   1.6309  -1.0427   0.00    0.0
2016/01/01 00:15:30.000   2584197.6404  -5880453.0121  -2093897.0936   6   9   2.3322   3.6288   1.5421  -2.4339   1.6307  -1.0828   0.00    0.0
2016/01/01 00:15:40.000   2590548.5688  -5903065.4664  -2020706.2717   6   9   2.2856   3.3212   1.5317  -2.3000   1.5905  -1.0740   0.00    0.0
2016/01/01 00:15:50.000   2596533.3538  -5924926.9728  -1947253.3791   6   9   2.2700   3.1839   1.5251  -2.2484   1.5659  -1.0676   0.00    0.0
2016/01/01 00:16:00.000   2602152.2208  -5946033.2445  -1873547.7157   6   9   2.2629   3.1044   1.5204  -2.2213   1.5496  -1.0628   0.00    0.0
2016/01/01 00:16:10.000   2607405.4956  -5966380.8825  -1799598.8710   6   9   2.2595   3.0528   1.5168  -2.2051   1.5382  -1.0591   0.00    0.0
2016/01/01 00:16:20.000   2612293.5457  -5985967.0837  -1725416.3842   6   8   2.3739   3.5429   1.5142  -2.4853   1.5364  -1.0595   0.00    0.0
2016/01/01 00:16:30.000   2616816.8312  -6004788.6156  -1651009.8577   6   8   2.3767   3.5269   1.5121  -2.4845   1.5318  -1.0578   0.00    0.0
2016/01/01 00:16:40.000   2620975.8743  -6022842.3625  -1576389.2325   6   8   2.3800   3.5148   1.5104  -2.4848   1.5286  -1.0565   0.00    0.0
2016/01/01 00:16:50.000   2624771.3694  -6040125.4259  -1501563.9810   6   8   2.3836   3.5057   1.5090  -2.4862   1.5264  -1.0557   0.00    0.0
2016/01/01 00:17:00.000   2628203.6472  -6056634.7565  -1426543.8205   6   8   2.3875   3.4990   1.5079  -2.4884   1.5251  -1.0551   0.00    0.0
2016/01/01 00:17:10.000   2631273.4485  -6072367.8431  -1351338.2793   6   8   2.3918   3.4942   1.5070  -2.4912   1.5244  -1.0549   0.00    0.0
2016/01/01 00:17:20.000   2633981.2930  -6087321.7301  -1275957.1232   6   9   2.2280   3.3221   1.4582  -2.2971   1.3850  -0.8828   0.00    0.0
2016/01/01 00:17:30.000   2636328.3363  -6101494.5948  -1200410.4316   6   9   2.0212   3.1325   1.4044  -2.0622   1.2204  -0.6393   0.00    0.0
2016/01/01 00:17:40.000   2638315.1200  -6114882.3299  -1124707.4833   6   8   1.9738   4.7736   1.4517  -2.2592   1.7110  -0.6502   0.00    0.0
2016/01/01 00:17:50.000   2639942.5682  -6127484.9296  -1048858.6136   6   9   1.9265   4.3713   1.4239  -2.1266   1.5550  -0.5561   0.00    0.0
2016/01/01 00:18:00.000   2641211.7118  -6139298.7125   -972873.4582   6   9   1.8966   3.7471   1.3971  -2.0237   1.3525  -0.4812   0.00    0.0
2016/01/01 00:18:10.000   2642123.5577  -6150323.3442   -896762.0000   6   9   1.8818   4.3259   1.4128  -2.0559   1.5190  -0.4722   0.00    0.0
2016/01/01 00:18:20.000   2642678.9807  -6160554.6831   -820533.9834   6   9   1.8649   3.7066   1.3894  -1.9714   1.3219  -0.4103   0.00    0.0
2016/01/01 00:18:30.000   2642879.0880  -6169991.5477   -744199.4122   6   9   1.8536   3.4654   1.3802  -1.9325   1.2424  -0.3707   0.00    0.0
2016/01/01 00:18:40.000   2642724.7535  -6178632.1733   -667767.9932   6   9   1.8509   4.3130   1.4084  -2.0105   1.5050  -0.3994   0.00    0.0
2016/01/01 00:18:50.000   2642217.3517  -6186474.6238   -591249.9370   6   8   1.8471   4.5187   1.4172  -2.0325   1.5733  -0.3999   0.00    0.0
2016/01/01 00:19:00.000   2641357.9907  -6193517.6086   -514654.9533   6   9   1.8402   4.3188   1.4091  -1.9968   1.5063  -0.3666   0.00    0.0
2016/01/01 00:19:10.000   2640148.0081  -6199759.6117   -437993.0911   6  10   1.8299   3.4196   1.2882  -1.8877   0.9958  -0.2144   0.00    0.0
2016/01/01 00:19:20.000   2638588.6024  -6205199.2204   -361274.3049   6   9   1.8289   3.6380   1.2210  -1.9149   0.7442  -0.1449   0.00    0.0
2016/01/01 00:19:30.000   2636681.1092  -6209835.3021   -284508.5552   6   9   1.8262   3.5333   1.1987  -1.9046   0.5939  -0.0721   0.00    0.0
2016/01/01 00:19:40.000   2634426.8570  -6213666.1296   -207705.8864   6   9   1.8244   3.4748   1.1865  -1.8995   0.4934   0.0738   0.00    0.0
2016/01/01 00:19:50.000   2631827.5231  -6216690.8775   -130876.2318   6   9   1.8232   3.4366   1.1789  -1.8970   0.4160   0.1167   0.00    0.0
2016/01/01 00:20:00.000   2628884.2747  -6218908.7366    -54029.5474   6   9   1.8225   3.4094   1.1737  -1.8961   0.3507   0.1425   0.00    0.0
2016/01/01 00:20:10.000   2625599.0384  -6220319.2014     22824.0795   6   9   1.8223   3.3890   1.1699  -1.8964   0.2914   0.1612   0.00    0.0
2016/01/01 00:20:20.000   2621973.2228  -6220921.1254     99674.7872   6   9   1.8225   3.3731   1.1672  -1.8976   0.2338   0.1758   0.00    0.0
2016/01/01 00:20:30.000   2618008.2496  -6220714.0595    176512.3690   6  10   1.8228   3.3376   1.1651  -1.8961   0.1930   0.1861   0.00    0.0
2016/01/01 00:20:40.000   2613706.1189  -6219697.4857    253327.2397   6  10   1.8237   3.3309   1.1637  -1.8991   0.1242   0.1965   0.00    0.0
2016/01/01 00:20:50.000   2609068.0630  -6217870.1776    330109.0022   6   9   1.8253   3.3423   1.1629  -1.9053  -0.0969   0.2067   0.00    0.0
2016/01/01 00:21:00.000   2604096.6435  -6215233.4094    406847.8577   6   9   1.8268   3.3359   1.1624  -1.9090  -0.1584   0.2142   0.00    0.0
2016/01/01 00:21:10.000   2598792.8093  -6211785.6627    483533.7730   6   9   1.8286   3.3308   1.1622  -1.9131  -0.1974   0.2208   0.00    0.0
2016/01/01 00:21:20.000   2593159.1616  -6207527.6613    560156.9059   6   9   1.8307   3.3270   1.1623  -1.9176  -0.2267   0.2266   0.00    0.0
2016/01/01 00:21:30.000   2587197.0644  -6202459.0081    636707.0285   6   9   1.8331   3.3242   1.1627  -1.9225  -0.2503   0.2318   0.00    0.0
2016/01/01 00:21:40.000   2580908.7360  -6196579.8839    713174.3030   6   9   1.8357   3.3223   1.1634  -1.9277  -0.2699   0.2364   0.00    0.0
2016/01/01 00:21:50.000   2574295.9731  -6189890.8119    789548.6330   6   9   1.8385   3.3213   1.1642  -1.9332  -0.2866   0.2404   0.00    0.0
2016/01/01 00:22:00.000   2567360.8989  -6182391.6612    865820.2394   6   9   1.8415   3.3210   1.1653  -1.9391  -0.3011   0.2440   0.00    0.0
2016/01/01 00:22:10.000   2560105.7519  -6174083.5983    941979.1689   6   9   1.8448   3.3214   1.1665  -1.9452  -0.3139   0.2470   0.00    0.0
2016/01/01 00:22:20.000   2552532.2330  -6164966.4148   1018015.3136   6   9   1.8482   3.3225   1.1680  -1.9516  -0.3252   0.2496   0.00    0.0
2016/01/01 00:22:30.000   2544642.6529  -6155041.2330   1093919.0505   6   9   1.8518   3.3241   1.1696  -1.9582  -0.3353   0.2517   0.00    0.0
2016/01/01 00:22:40.000   2536438.9779  -6144308.3538   1169680.3795   6   9   1.8556   3.3263   1.1713  -1.9650  -0.3442   0.2533   0.00    0.0
2016/01/01 00:22:50.000   2527923.9320  -6132769.5423   1245289.4775   6   9   1.8595   3.3291   1.1733  -1.9720  -0.3522   0.2543   0.00    0.0
2016/01/01 00:23:00.000   2519099.3048  -6120424.7584   1320736.3795   6   9   1.8636   3.3322   1.1753  -1.9791  -0.3592   0.2549   0.00    0.0
2016/01/01 00:23:10.000   2509967.7543  -6107275.9355   1396011.3797   6   9   1.8679   3.3358   1.1775  -1.9865  -0.3653   0.2548   0.00    0.0
2016/01/01 00:23:20.000   2500531.2190  -6093323.8084   1471104.6654   6   9   1.8722   3.3398   1.1798  -1.9939  -0.3706   0.2540   0.00    0.0
2016/01/01 00:23:30.000   2490792.2300  -6078570.0148   1546006.4785   6   9   1.8767   3.3442   1.1822  -2.0014  -0.3751   0.2525   0.00    0.0
2016/01/01 00:23:40.000   2480753.4919  -6063015.7763   1620706.9390   6   9   1.8812   3.3489   1.1848  -2.0091  -0.3786   0.2502   0.00    0.0
2016/01/01 00:23:50.000   2470417.1999  -6046662.7452   1695196.2629   6   9   1.8859   3.3539   1.1874  -2.0168  -0.3813   0.2470   0.00    0.0
2016/01/01 00:24:00.000   2459785.9569  -6029512.8433   1769464.8884   6   9   1.8906   3.3592   1.1901  -2.0245  -0.3831   0.2429   0.00    0.0
2016/01/01 00:24:10.000   2448862.3611  -6011567.4100   1843503.0595   6   9   1.8954   3.3647   1.1929  -2.0323  -0.3839   0.2375   0.00    0.0
2016/01/01 00:24:20.000   2437648.7645  -5992828.6983   1917301.0575   6   9   1.9002   3.3704   1.1958  -2.0400  -0.3837   0.2309   0.00    0.0
2016/01/01 00:24:30.000   2426147.7704  -5973298.4314   1990849.3975   6   9   1.9051   3.3764   1.1987  -2.0478  -0.3826   0.2229   0.00    0.0
2016/01/01 00:24:40.000   2414362.3862  -5952979.0751   2064138.6793   6   8   2.1574   3.8327   1.4472  -2.4563  -1.2641   0.9243   0.00    0.0
2016/01/01 00:24:50.000   2402294.7059  -5931872.1335   2137158.7863   6   8   2.1591   3.8351   1.4483  -2.4592  -1.2590   0.9177   0.00    0.0
2016/01/01 00:25:00.000   2389947.5207  -5909979.9779   2209900.5670   6   8   2.1610   3.8380   1.4497  -2.4625  -1.2542   0.9111   0.00    0.0
2016/01/01 00:25:10.000   2377324.0148  -5887305.7137   2282354.6486   6   9   2.1581   3.8323   1.4465  -2.4582  -1.2369   0.8948   0.00    0.0
2016/01/01 00:25:20.000   2364426.6742  -5863851.2111   2354511.2613   6   8   2.1655   3.8455   1.4534  -2.4700  -1.2454   0.8980   0.00    0.0
2016/01/01 00:25:30.000   2351258.2053  -5839619.2831   2426361.4484   6   8   2.1681   3.8501   1.4558  -2.4742  -1.2413   0.8915   0.00    0.0
2016/01/01 00:25:40.000   2337821.4309  -5814612.7038   2497895.3869   6   8   2.1709   3.8551   1.4584  -2.4787  -1.2375   0.8849   0.00    0.0
2016/01/01 00:25:50.000   2324119.3812  -5788834.1471   2569104.0724   6   8   2.1739   3.8607   1.4614  -2.4835  -1.2339   0.8784   0.00    0.0
2016/01/01 00:26:00.000   2310155.0589  -5762286.9121   2639978.2947   6   8   2.1771   3.8667   1.4645  -2.4885  -1.2304   0.8718   0.00    0.0
2016/01/01 00:26:10.000   2295931.2794  -5734974.4759   2710508.5728   6   9   1.8930   3.3515   1.4678  -2.0293  -1.2417   0.8767   0.00    0.0
2016/01/01 00:26:20.000   2281450.8391  -5706898.2895   2780685.4796   6   9   1.7292   3.1405   1.6667  -1.7762  -1.4880   0.9774   0.00    0.0
2016/01/01 00:26:30.000   2266716.7785  -5678063.7019   2850501.1172   6   9   1.6617   3.0225   1.6730  -1.6563  -1.4877   0.9709   0.00    0.0
2016/01/01 00:26:40.000   2251732.4431  -5648473.0418   2919945.3610   6   8   1.6280   2.9826   1.7141  -1.6011  -1.5301   0.9828   0.00    0.0
2016/01/01 00:26:50.000   2236500.2831  -5618129.7398   2989009.1872   6   9   1.6036   2.7180   1.7129  -1.5389  -1.5085   0.9753   0.00    0.0
2016/01/01 00:27:00.000   2221023.8019  -5587037.1669   3057683.5036   6   9   1.5863   2.5514   1.7122  -1.5146  -1.4938   0.9707   0.00    0.0
2016/01/01 00:27:10.000   2205305.7566  -5555199.0820   3125959.7166   6   9   1.5735   2.4824   1.7120  -1.4955  -1.4877   0.9663   0.00    0.0
2016/01/01 00:27:20.000   2189349.5097  -5522619.3610   3193828.7163   6   9   1.5634   2.4418   1.7123  -1.4804  -1.4841   0.9622   0.00    0.0
2016/01/01 00:27:30.000   2173158.0071  -5489302.0015   3261281.6901   6   9   1.5553   2.4141   1.7128  -1.4681  -1.4816   0.9583   0.00    0.0
2016/01/01 00:27:40.000   2156734.8297  -5455251.0102   3328309.8524   6   9   1.5485   2.3935   1.7136  -1.4579  -1.4798   0.9545   0.00    0.0
2016/01/01 00:27:50.000   2140082.6669  -5420469.6967   3394904.1280   6   9   1.5428   2.3776   1.7148  -1.4494  -1.4785   0.9509   0.00    0.0
2016/01/01 00:28:00.000   2123204.9603  -5384963.2649   3461056.4992   6   9   1.5379   2.3648   1.7162  -1.4421  -1.4776   0.9473   0.00    0.0
2016/01/01 00:28:10.000   2106105.1769  -5348735.6314   3526758.0076   6   9   1.5337   2.3544   1.7179  -1.4357  -1.4770   0.9439   0.00    0.0
2016/01/01 00:28:20.000   2088786.1260  -5311790.9720   3592000.0742   6   9   1.5300   2.3457   1.7200  -1.4302  -1.4768   0.9405   0.00    0.0
2016/01/01 00:28:30.000   2071251.3935  -5274133.6490   3656774.1443   6   9   1.5268   2.3385   1.7223  -1.4254  -1.4768   0.9372   0.00    0.0
2016/01/01 00:28:40.000   2053504.1776  -5235768.7428   3721072.2944   6   9   1.5240   2.3324   1.7250  -1.4212  -1.4770   0.9340   0.00    0.0
2016/01/01 00:28:50.000   2035547.8738  -5196700.6155   3784885.6049   6   9   1.5216   2.3273   1.7280  -1.4175  -1.4775   0.9307   0.00    0.0
2016/01/01 00:29:00.000   2017385.8268  -5156933.8341   3848205.7669   6   9   1.5196   2.3230   1.7312  -1.4142  -1.4782   0.9276   0.00    0.0
2016/01/01 00:29:10.000   1999021.3363  -5116473.3185   3911024.9277   6   9   1.5178   2.3195   1.7348  -1.4114  -1.4791   0.9244   0.00    0.0
2016/01/01 00:29:20.000   1980457.8940  -5075324.3820   3973334.5112   6   9   1.5163   2.3166   1.7387  -1.4089  -1.4802   0.9213   0.00    0.0
2016/01/01 00:29:30.000   1961698.6770  -5033491.7525   4035126.9940   6   9   1.5151   2.3142   1.7428  -1.4067  -1.4815   0.9182   0.00    0.0
2016/01/01 00:29:40.000   1942747.3084  -4990980.6793   4096393.7632   6   9   1.5141   2.3124   1.7472  -1.4048  -1.4830   0.9152   0.00    0.0
2016/01/01 00:29:50.000   1923607.2123  -4947796.2955   4157127.0374   6   9   1.5133   2.3111   1.7518  -1.4032  -1.4847   0.9121   0.00    0.0
2016/01/01 00:30:00.000   1904281.6723  -4903944.0094   4217318.8907   6   9   1.5128   2.3102   1.7566  -1.4018  -1.4865   0.9090   0.00    0.0
2016/01/01 00:30:10.000   1884774.4657  -4859429.1187   4276961.5637   6   9   1.5124   2.3097   1.7615  -1.4007  -1.4884   0.9060   0.00    0.0
2016/01/01 00:30:20.000   1865088.9219  -4814257.4449   4336047.7285   6   8   1.5132   2.3408   2.0069  -1.4071  -1.6076   0.9310   0.00    0.0
2016/01/01 00:30:30.000   1845228.4579  -4768434.0785   4394568.4938   6   8   1.5132   2.3404   2.0086  -1.4060  -1.6078   0.9263   0.00    0.0
2016/01/01 00:30:40.000   1825196.8266  -4721964.9909   4452517.1667   6   8   1.5133   2.3404   2.0107  -1.4050  -1.6082   0.9217   0.00    0.0
2016/01/01 00:30:50.000   1804997.3206  -4674856.0953   4509886.0323   6   8   1.5135   2.3407   2.0130  -1.4043  -1.6088   0.9172   0.00    0.0
2016/01/01 00:31:00.000   1784633.5363  -4627112.9321   4566667.8085   6   8   1.5140   2.3413   2.0157  -1.4038  -1.6096   0.9128   0.00    0.0
2016/01/01 00:31:10.000   1764109.1221  -4578741.7682   4622854.9046   6   8   1.5146   2.3423   2.0186  -1.4035  -1.6106   0.9085   0.00    0.0
2016/01/01 00:31:20.000   1743427.5032  -4529748.3681   4678439.6985   6   8   1.5154   2.3435   2.0217  -1.4034  -1.6117   0.9044   0.00    0.0
2016/01/01 00:31:30.000   1722592.5205  -4480139.2365   4733415.9548   6   8   1.5163   2.3450   2.0251  -1.4035  -1.6130   0.9004   0.00    0.0
2016/01/01 00:31:40.000   1701607.3779  -4429919.9971   4787775.3452   6   8   1.5173   2.3467   2.0286  -1.4038  -1.6144   0.8966   0.00    0.0
2016/01/01 00:31:50.000   1680476.0861  -4379097.4351   4841511.3953   6   8   1.5185   2.3487   2.0323  -1.4043  -1.6159   0.8929   0.00    0.0
2016/01/01 00:32:00.000   1659202.1364  -4327677.7449   4894616.9538   6   8   1.5198   2.3509   2.0361  -1.4050  -1.6174   0.8895   0.00    0.0
2016/01/01 00:32:10.000   1637788.9187  -4275667.3910   4947085.6411   6   8   1.6042   2.4946   2.8191  -1.2472  -2.0570  -0.4526   0.00    0.0
2016/01/01 00:32:20.000   1616240.7450  -4223072.0920   4998908.2980   6   8   1.6066   2.5012   2.8413  -1.2450  -2.0697  -0.4799   0.00    0.0
2016/01/01 00:32:30.000   1594560.1315  -4169900.2112   5050082.3805   6   7   1.6259   2.5368   3.0008  -1.2069  -2.1631  -0.6807   0.00    0.0
2016/01/01 00:32:40.000   1572751.5870  -4116157.2498   5100598.3833   6   7   1.6253   2.5387   2.9993  -1.2118  -2.1619  -0.6708   0.00    0.0
2016/01/01 00:32:50.000   1550818.5078  -4061850.5765   5150450.8880   6   8   1.6140   2.5214   2.9053  -1.2410  -2.1064  -0.5451   0.00    0.0
2016/01/01 00:33:00.000   1528764.6292  -4006986.4824   5199632.0486   6   7   1.6247   2.5435   2.9976  -1.2220  -2.1605  -0.6508   0.00    0.0
2016/01/01 00:33:10.000   1506593.4469  -3951572.0450   5248136.5277   6   7   1.6247   2.5462   2.9976  -1.2273  -2.1601  -0.6407   0.00    0.0
2016/01/01 00:33:20.000   1484308.9908  -3895614.8097   5295958.4384   6   7   1.6249   2.5492   2.9980  -1.2327  -2.1601  -0.6305   0.00    0.0
2016/01/01 00:33:30.000   1461914.4977  -3839121.3798   5343090.7465   6   8   1.6223   2.5470   2.9728  -1.2448  -2.1448  -0.5887   0.00    0.0
2016/01/01 00:33:40.000   1439413.9869  -3782098.7938   5389527.3304   6   7   1.6257   2.5560   3.0003  -1.2439  -2.1607  -0.6098   0.00    0.0
2016/01/01 00:33:50.000   1416810.9430  -3724554.6323   5435262.7747   6   7   1.6263   2.5597   3.0021  -1.2498  -2.1614  -0.5993   0.00    0.0
2016/01/01 00:34:00.000   1394108.9485  -3666495.9553   5480290.6669   6   7   1.6271   2.5637   3.0044  -1.2557  -2.1623  -0.5885   0.00    0.0
2016/01/01 00:34:10.000   1371311.9430  -3607929.9587   5524605.0316   6   7   1.6281   2.5679   3.0071  -1.2618  -2.1635  -0.5776   0.00    0.0
2016/01/01 00:34:20.000   1348423.4000  -3548864.3232   5568200.5719   6   7   1.6293   2.5723   3.0102  -1.2680  -2.1649  -0.5664   0.00    0.0
2016/01/01 00:34:30.000   1325446.9901  -3489306.4692   5611070.8912   6   8   1.5224   2.4099   2.9967  -1.0446  -2.0985  -0.7026   0.00    0.0
2016/01/01 00:34:40.000   1302386.8590  -3429264.5364   5653211.5474   6   8   1.4017   2.2279   2.9824  -0.7417  -2.0263  -0.8228   0.00    0.0
2016/01/01 00:34:50.000   1279246.0895  -3368745.4723   5694616.1737   6   8   1.3568   2.1640   2.9803  -0.6066  -2.0024  -0.8556   0.00    0.0
2016/01/01 00:35:00.000   1256028.8231  -3307757.3670   5735279.8714   6   8   1.3322   2.1316   2.9814  -0.5253  -1.9911  -0.8689   0.00    0.0
2016/01/01 00:35:10.000   1232738.5054  -3246307.9153   5775197.3398   6   8   1.3161   2.1123   2.9839  -0.4692  -1.9849  -0.8746   0.00    0.0
2016/01/01 00:35:20.000   1209378.8240  -3184404.9476   5814363.1080   6   8   1.3042   2.0998   2.9869  -0.4273  -1.9813  -0.8766   0.00    0.0
2016/01/01 00:35:30.000   1185953.6422  -3122056.5669   5852772.5849   6   8   1.2949   2.0913   2.9903  -0.3944  -1.9794  -0.8764   0.00    0.0
2016/01/01 00:35:40.000   1162466.4977  -3059270.4310   5890420.2841   6   8   1.2873   2.0854   2.9937  -0.3678  -1.9784  -0.8748   0.00    0.0
2016/01/01 00:35:50.000   1138920.9346  -2996054.7396   5927301.7658   6   9   1.2752   1.9344   2.9632  -0.1649  -1.8887  -0.9026   0.00    0.0
2016/01/01 00:36:00.000   1115320.8302  -2932417.6461   5963412.2372   6   9   1.2656   1.7645   2.9279   0.2488  -1.7870  -0.9247   0.00    0.0
2016/01/01 00:36:10.000   1091669.7445  -2868367.3069   5998746.8235   6  10   1.2472   1.6181   2.8454   0.0861  -1.6520  -0.8669   0.00    0.0
2016/01/01 00:36:20.000   1067971.4123  -2803911.5898   6033300.9099   6  10   1.2166   1.4855   2.7371  -0.3242  -1.5007  -0.7495   0.00    0.0
2016/01/01 00:36:30.000   1044229.4578  -2739059.1553   6067070.1302   6  10   1.2029   1.4274   2.6989  -0.3676  -1.4411  -0.7017   0.00    0.0
2016/01/01 00:36:40.000   1020447.3680  -2673818.1916   6100049.9529   6  10   1.1938   1.3923   2.6796  -0.3831  -1.4078  -0.6725   0.00    0.0
2016/01/01 00:36:50.000    996628.9160  -2608197.1506   6132236.5313   6  10   1.1869   1.3682   2.6693  -0.3898  -1.3863  -0.6507   0.00    0.0
2016/01/01 00:37:00.000    972777.8047  -2542204.4203   6163625.1886   6  10   1.1811   1.3502   2.6699  -0.3930  -1.3721  -0.6329   0.00    0.0
2016/01/01 00:37:10.000    948897.5616  -2475848.4577   6194211.7354   6   9   1.1768   1.3500   3.6583  -0.3859  -1.5284  -0.6850   0.00    0.0
2016/01/01 00:37:20.000    924991.8333  -2409137.8904   6223993.1278   6   9   1.1723   1.3382   3.6471  -0.3881  -1.5159  -0.6601   0.00    0.0
2016/01/01 00:37:30.000    901064.0702  -2342081.0516   6252964.4108   6   9   1.1683   1.3284   3.6379  -0.3900  -1.5056  -0.6358   0.00    0.0
2016/01/01 00:37:40.000    877118.0489  -2274686.7944   6281122.5088   6   9   1.1647   1.3201   3.6303  -0.3918  -1.4970  -0.6116   0.00    0.0
2016/01/01 00:37:50.000    853157.3987  -2206964.0056   6308463.5789   6   9   1.1614   1.3129   3.6239  -0.3936  -1.4897  -0.5873   0.00    0.0
2016/01/01 00:38:00.000    829185.4085  -2138921.0276   6334984.7262   6   9   1.1585   1.3067   3.6186  -0.3955  -1.4834  -0.5625   0.00    0.0
2016/01/01 00:38:10.000    805206.0294  -2070566.9562   6360681.7481   6   9   1.1558   1.3013   3.6142  -0.3975  -1.4779  -0.5371   0.00    0.0
2016/01/01 00:38:20.000    781222.4975  -2001910.3827   6385551.9937   6   9   1.1533   1.2965   3.6106  -0.3996  -1.4731  -0.5108   0.00    0.0
2016/01/01 00:38:30.000    757238.3753  -1932960.3655   6409591.6539   6   9   1.1511   1.2923   3.6078  -0.4018  -1.4688  -0.4835   0.00    0.0
2016/01/01 00:38:40.000    733257.3422  -1863725.6734   6432797.6686   6   9   1.1491   1.2886   3.6056  -0.4042  -1.4651  -0.4547   0.00    0.0
2016/01/01 00:38:50.000    709282.7698  -1794215.3661   6455167.2312   6   9   1.1472   1.2854   3.6041  -0.4067  -1.4617  -0.4242   0.00    0.0
2016/01/01 00:39:00.000    685318.2244  -1724438.2815   6476697.2050   6   9   1.1456   1.2825   3.6032  -0.4093  -1.4588  -0.3916   0.00    0.0
2016/01/01 00:39:10.000    661367.0822  -1654403.6641   6497385.3738   6   9   1.1441   1.2801   3.6028  -0.4121  -1.4562  -0.3561   0.00    0.0
2016/01/01 00:39:20.000    637432.8140  -1584120.3505   6517227.9317   6  10   1.1125   1.2492   3.5786  -0.3190  -1.4146  -0.4582   0.00    0.0
2016/01/01 00:39:30.000    613519.1103  -1513597.6013   6536222.8893   6  10   1.0767   1.2178   3.5513  -0.1731  -1.3692  -0.5536   0.00    0.0
2016/01/01 00:39:40.000    589629.1670  -1442844.6284   6554368.6817   6  10   1.0629   1.2058   3.5413  -0.0810  -1.3511  -0.5713   0.00    0.0
2016/01/01 00:39:50.000    565766.4652  -1371870.6842   6571661.7573   6  10   1.0549   1.1991   3.5360   0.0685  -1.3400  -0.5722   0.00    0.0
2016/01/01 00:40:00.000    541934.4615  -1300684.8473   6588100.6461   6  10   1.0492   1.1945   3.5327   0.1051  -1.3320  -0.5665   0.00    0.0
2016/01/01 00:40:10.000    518136.3670  -1229296.1833   6603682.9579   6  10   1.0448   1.1912   3.5305   0.1222  -1.3255  -0.5576   0.00    0.0
2016/01/01 00:40:20.000    494375.8406  -1157714.3480   6618406.4799   6  10   1.0412   1.1887   3.5291   0.1318  -1.3200  -0.5468   0.00    0.0
2016/01/01 00:40:30.000    470655.9935  -1085948.3550   6632269.7992   6  10   1.0381   1.1867   3.5281   0.1374  -1.3151  -0.5348   0.00    0.0
2016/01/01 00:40:40.000    446980.0078  -1014007.4925   6645271.0684   6  10   1.0354   1.1852   3.5276   0.1406  -1.3107  -0.5218   0.00    0.0
2016/01/01 00:40:50.000    423351.5025   -941901.2974   6657408.0292   6  10   1.0329   1.1840   3.5273   0.1422  -1.3067  -0.5082   0.00    0.0
2016/01/01 00:41:00.000    399773.5331   -869638.9916   6668679.7623   6  10   1.0308   1.1832   3.5272   0.1425  -1.3030  -0.4941   0.00    0.0
2016/01/01 00:41:10.000    376249.5555   -797229.9194   6679084.2274   6  10   1.0288   1.1825   3.5272   0.1419  -1.2995  -0.4795   0.00    0.0
2016/01/01 00:41:20.000    352782.5863   -724683.7797   6688621.0714   6  10   1.0269   1.1821   3.5273   0.1405  -1.2963  -0.4646   0.00    0.0
2016/01/01 00:41:30.000    329376.0951   -652009.9378   6697288.3166   6  10   1.0253   1.1820   3.5274   0.1384  -1.2933  -0.4493   0.00    0.0
2016/01/01 00:41:40.000    306033.1914   -579217.8340   6705085.0743   6  10   1.0238   1.1820   3.5274   0.1357  -1.2906  -0.4336   0.00    0.0
2016/01/01 00:41:50.000    282757.0269   -506316.8946   6712010.0898   6  10   1.0224   1.1822   3.5275   0.1324  -1.2880  -0.4176   0.00    0.0
2016/01/01 00:42:00.000    259550.8095   -433316.7739   6718062.5140   6  10   1.0211   1.1825   3.5277   0.1286  -1.2855  -0.4012   0.00    0.0
2016/01/01 00:42:10.000    236417.7028   -360226.9460   6723242.0798   6  10   1.0199   1.1831   3.5281   0.1243  -1.2832  -0.3840   0.00    0.0
2016/01/01 00:42:20.000    213360.5806   -287056.9486   6727547.2904   6  10   1.0189   1.1838   3.5296   0.1196  -1.2809  -0.3653   0.00    0.0
2016/01/01 00:42:30.000    190382.8493   -213816.2879   6730978.3953   6  10   1.0181   1.1846   3.5342   0.1148  -1.2783  -0.3427   0.00    0.0
2016/01/01 00:42:40.000    167487.3533   -140514.6353   6733534.4887   6  10   1.0179   1.1858   3.5526   0.1118  -1.2738  -0.3033   0.00    0.0
2016/01/01 00:42:50.000    144677.1398    -67161.4172   6735215.5344   6  10   1.0222   1.1881   3.7006   0.1288  -1.2498   0.1611   0.00    0.0
2016/01/01 00:43:00.000    144677.1390    -67161.4078   6735215.0829   0   0  30.0000  30.0000  30.0000   0.0000   0.0000   0.0000   0.00    0.0
2016/01/01 00:43:10.000     99324.8377     79661.0658   6735951.2390   6   9   1.0523   1.1992   4.5161   0.2197  -1.0949   0.8409   0.00    0.0
2016/01/01 00:43:20.000     76788.6493    153111.0703   6735005.7453   6   9   1.0520   1.2008   4.5215   0.2171  -1.0908   0.8502   0.00    0.0
2016/01/01 00:43:30.000     54349.7045    226574.1478   6733184.6736   6   9   1.0517   1.2026   4.5268   0.2144  -1.0869   0.8594   0.00    0.0
2016/01/01 00:43:40.000     32010.8957    300040.5577   6730488.1635   6   9   1.0516   1.2045   4.5319   0.2115  -1.0833   0.8683   0.00    0.0
2016/01/01 00:43:50.000      9775.0067    373500.6864   6726917.3477   6  10   1.0501   1.2062   4.5027   0.2043  -1.0877   0.8597   0.00    0.0
2016/01/01 00:44:00.000    -12354.9474    446944.9524   6722472.0569   6   9   1.0515   1.2087   4.5415   0.2050  -1.0768   0.8857   0.00    0.0
2016/01/01 00:44:10.000    -34376.1797    520363.5673   6717153.3644   6   9   1.0516   1.2109   4.5458   0.2014  -1.0741   0.8940   0.00    0.0
2016/01/01 00:44:20.000    -56285.8793    593747.2052   6710961.6495   6   9   1.0518   1.2132   4.5497   0.1976  -1.0717   0.9021   0.00    0.0
2016/01/01 00:44:30.000    -78081.4504    667085.9244   6703897.9315   6   9   1.0521   1.2155   4.5532   0.1934  -1.0698   0.9100   0.00    0.0
2016/01/01 00:44:40.000    -99759.8408    740370.2696   6695962.7761   6   9   1.0640   1.3497   5.6997   0.3558   0.9222   1.1736   0.00    0.0
2016/01/01 00:44:50.000   -121318.6419    813590.5219   6687156.2492   6   8   1.0657   1.3679   5.8146   0.3687   1.0441   1.2049   0.00    0.0
2016/01/01 00:45:00.000   -142754.9696    886737.0714   6677480.6730   6   9   1.0650   1.3575   5.6986   0.3526   0.9352   1.1851   0.00    0.0
2016/01/01 00:45:10.000   -164066.2490    959800.6683   6666939.2697   6   8   1.0663   1.3698   5.7614   0.3590   1.0067   1.2045   0.00    0.0
2016/01/01 00:45:20.000   -185249.9311   1032771.3375   6655529.9828   6   8   1.0667   1.3710   5.7356   0.3539   0.9881   1.2042   0.00    0.0
2016/01/01 00:45:30.000   -206303.2693   1105639.5811   6643256.9263   6   9   1.0667   1.3682   5.6775   0.3442   0.9348   1.1966   0.00    0.0
2016/01/01 00:45:40.000   -227223.8317   1178395.5999   6630119.7872   6   8   1.0676   1.3741   5.6856   0.3432   0.9512   1.2034   0.00    0.0
2016/01/01 00:45:50.000   -248009.0716   1251030.3265   6616121.2571   6   8   1.0682   1.3759   5.6613   0.3376   0.9328   1.2029   0.00    0.0
2016/01/01 00:46:00.000   -268656.5475   1323533.5199   6601262.8454   6   8   1.0689   1.3779   5.6376   0.3317   0.9144   1.2023   0.00    0.0
2016/01/01 00:46:10.000   -289163.6615   1395895.9839   6585546.6488   6   8   1.0696   1.3801   5.6143   0.3257   0.8962   1.2017   0.00    0.0
2016/01/01 00:46:20.000   -309528.0248   1468108.0891   6568974.8567   6   8   1.0704   1.3825   5.5916   0.3194   0.8780   1.2011   0.00    0.0
2016/01/01 00:46:30.000   -329747.2370   1540160.2374   6551549.1613   6   8   1.0713   1.3852   5.5693   0.3129   0.8598   1.2003   0.00    0.0
2016/01/01 00:46:40.000   -349818.9295   1612043.2655   6533271.7129   6   9   1.0681   1.3252   4.9854   0.3643   1.3087   1.0995   0.00    0.0
2016/01/01 00:46:50.000   -369740.7453   1683747.2274   6514145.6435   6   9   1.0675   1.3015   4.7460   0.3791   1.4381   1.0601   0.00    0.0
2016/01/01 00:47:00.000   -389510.4110   1755262.8959   6494173.0745   6   9   1.0681   1.2933   4.6597   0.3810   1.4751   1.0470   0.00    0.0
2016/01/01 00:47:10.000   -409125.6341   1826580.6624   6473356.0357   6   9   1.0690   1.2892   4.6136   0.3798   1.4904   1.0407   0.00    0.0
2016/01/01 00:47:20.000   -428584.2297   1897691.1763   6451697.8972   6   9   1.0701   1.2868   4.5841   0.3772   1.4975   1.0370   0.00    0.0
2016/01/01 00:47:30.000   -447883.8760   1968585.0700   6429201.2792   6   9   1.0713   1.2854   4.5632   0.3738   1.5004   1.0348   0.00    0.0
2016/01/01 00:47:40.000   -467022.6443   2039252.9701   6405868.9951   6   9   1.0726   1.2845   4.5474   0.3699   1.5010   1.0333   0.00    0.0
2016/01/01 00:47:50.000   -485998.0497   2109685.3067   6381704.1483   6   9   1.0740   1.2842   4.5349   0.3656   1.5002   1.0322   0.00    0.0
2016/01/01 00:48:00.000   -504808.3590   2179873.0367   6356710.2010   6   9   1.0754   1.2841   4.5249   0.3611   1.4985   1.0315   0.00    0.0
2016/01/01 00:48:10.000   -523451.3453   2249806.5594   6330889.6956   6   9   1.0770   1.2843   4.5167   0.3562   1.4961   1.0310   0.00    0.0
2016/01/01 00:48:20.000   -541924.8754   2319476.8656   6304246.8934   6   9   1.0786   1.2847   4.5098   0.3512   1.4933   1.0307   0.00    0.0
2016/01/01 00:48:30.000   -560227.2173   2388874.6716   6276784.3451   6   9   1.0802   1.2854   4.5041   0.3460   1.4901   1.0306   0.00    0.0
2016/01/01 00:48:40.000   -578356.0539   2457990.6392   6248506.3412   6  10   1.0818   1.2861   4.1562   0.3404   1.4803   1.0183   0.00    0.0
2016/01/01 00:48:50.000   -596309.8203   2526815.7160   6219416.2745   6  10   1.0835   1.2869   3.7261   0.3344   1.4636   1.0054   0.00    0.0
2016/01/01 00:49:00.000   -614086.3883   2595340.7443   6189517.4150   6  10   1.0853   1.2879   3.5628   0.3287   1.4565   1.0009   0.00    0.0
2016/01/01 00:49:10.000   -631683.9056   2663556.7521   6158814.7337   6  10   1.0872   1.2890   3.4722   0.3229   1.4516   0.9985   0.00    0.0
2016/01/01 00:49:20.000   -649100.8155   2731454.3476   6127311.2181   6  10   1.0891   1.2902   3.4122   0.3171   1.4477   0.9972   0.00    0.0
2016/01/01 00:49:30.000   -666334.9960   2799024.7588   6095011.7745   6  10   1.0910   1.2915   3.3679   0.3113   1.4441   0.9963   0.00    0.0
2016/01/01 00:49:40.000   -683384.9724   2866258.8348   6061919.8682   6  10   1.0930   1.2928   3.3329   0.3055   1.4407   0.9958   0.00    0.0
2016/01/01 00:49:50.000   -700248.9289   2933147.9064   6028040.1629   6   9   1.1101   1.4979   3.3577  -0.2188   1.5868   0.9391   0.00    0.0
2016/01/01 00:50:00.000   -716925.2478   2999682.6346   5993376.5930   6   9   1.1123   1.4975   3.3314  -0.2266   1.5808   0.9398   0.00    0.0
2016/01/01 00:50:10.000   -733412.2671   3065854.4412   5957934.2383   6   9   1.1145   1.4972   3.3081  -0.2338   1.5750   0.9407   0.00    0.0
2016/01/01 00:50:20.000   -749708.4525   3131654.4879   5921717.5442   6   9   1.1166   1.4970   3.2872  -0.2404   1.5694   0.9417   0.00    0.0
2016/01/01 00:50:30.000   -765812.0839   3197073.7916   5884731.0414   6   9   1.1188   1.4969   3.2681  -0.2466   1.5639   0.9429   0.00    0.0
2016/01/01 00:50:40.000   -781721.8847   3262103.8582   5846979.3012   6   9   1.1210   1.4969   3.2504  -0.2521   1.5585   0.9443   0.00    0.0
2016/01/01 00:50:50.000   -797436.0347   3326735.7568   5808467.9089   6   9   1.2416   1.7592   3.3330  -0.7452   1.7770   0.6840   0.00    0.0
2016/01/01 00:51:00.000   -812953.4335   3390961.1688   5769201.4465   6   9   1.1866   1.6360   3.2721  -0.5631   1.6688   0.8222   0.00    0.0
2016/01/01 00:51:10.000   -828272.5706   3454771.2799   5729184.9546   6   9   1.2470   1.7633   3.3019  -0.7530   1.7670   0.6906   0.00    0.0
2016/01/01 00:51:20.000   -843391.9835   3518157.8212   5688424.0312   6   9   1.2495   1.7650   3.2875  -0.7561   1.7619   0.6946   0.00    0.0
2016/01/01 00:51:30.000   -858310.2996   3581111.9598   5646923.5627   6   9   1.1939   1.6398   3.2294  -0.5729   1.6533   0.8309   0.00    0.0
2016/01/01 00:51:40.000   -873026.5062   3643625.6349   5604688.8713   6   9   1.1772   1.5986   3.2025  -0.5027   1.6142   0.8715   0.00    0.0
2016/01/01 00:51:50.000   -887538.9867   3705690.2457   5561726.0479   6   8   1.2563   1.7697   3.2479  -0.7632   1.7464   0.7084   0.00    0.0
2016/01/01 00:52:00.000   -887538.7600   3705690.3815   5561725.6817   0   0  30.0000  30.0000  30.0000   0.0000   0.0000   0.0000   0.00    0.0
2016/01/01 00:52:10.000   -915948.7618   3828439.1989   5473636.7591   6   9   1.2595   1.7702   3.2254  -0.7634   1.7342   0.7215   0.00    0.0
2016/01/01 00:52:20.000   -929843.6355   3889107.0043   5428521.6582   6   9   1.2046   1.6444   3.1720  -0.5813   1.6273   0.8501   0.00    0.0
2016/01/01 00:52:30.000   -943530.4135   3949292.7905   5382700.9106   6   9   1.1854   1.5967   3.1462  -0.4996   1.5838   0.8943   0.00    0.0
2016/01/01 00:52:40.000   -957007.8417   4008988.0863   5336180.2232   6   7   1.2710   2.3509   3.3202  -0.8730   2.0881   0.6648   0.00    0.0
2016/01/01 00:52:50.000   -970275.1624   4068185.9515   5288966.0214   6   7   1.2733   2.3463   3.3089  -0.8744   2.0798   0.6708   0.00    0.0
2016/01/01 00:53:00.000   -983331.1995   4126878.0463   5241064.6195   6   8   1.2706   1.7782   3.1734  -0.7713   1.7099   0.7480   0.00    0.0
2016/01/01 00:53:10.000   -996175.1787   4185055.8954   5192481.2280   6   8   1.2730   1.7798   3.1643  -0.7728   1.7052   0.7534   0.00    0.0
2016/01/01 00:53:20.000  -1008806.1380   4242712.1547   5143223.1042   6   8   1.2754   1.7814   3.1555  -0.7745   1.7006   0.7587   0.00    0.0
2016/01/01 00:53:30.000  -1021223.1847   4299838.7772   5093296.0870   6   8   1.2779   1.7830   3.1471  -0.7762   1.6961   0.7640   0.00    0.0
2016/01/01 00:53:40.000  -1033425.3491   4356428.2097   5042706.8651   6   8   1.2805   1.7845   3.1390  -0.7779   1.6915   0.7692   0.00    0.0
2016/01/01 00:53:50.000  -1045412.1297   4412472.8696   4991462.2284   6   8   1.2832   1.7859   3.1312  -0.7798   1.6869   0.7745   0.00    0.0
2016/01/01 00:54:00.000  -1057182.3294   4467965.2629   4939568.6177   6   8   1.2860   1.7871   3.1238  -0.7816   1.6823   0.7797   0.00    0.0
2016/01/01 00:54:10.000  -1068735.6021   4522897.7641   4887032.7193   6   8   1.2889   1.7883   3.1166  -0.7836   1.6777   0.7850   0.00    0.0
2016/01/01 00:54:20.000  -1080071.3207   4577263.1054   4833861.3860   6   8   1.2918   1.7893   3.1097  -0.7855   1.6730   0.7902   0.00    0.0
2016/01/01 00:54:30.000  -1091188.5342   4631053.7350   4780061.8049   6   8   1.2949   1.7905   3.1031  -0.7876   1.6685   0.7955   0.00    0.0
2016/01/01 00:54:40.000  -1102086.9961   4684262.6129   4725640.7477   6   8   1.2980   1.7925   3.0969  -0.7899   1.6645   0.8006   0.00    0.0
2016/01/01 00:54:50.000  -1112766.0296   4736882.5155   4670605.0375   6   8   1.3013   1.7985   3.0919  -0.7931   1.6631   0.8054   0.00    0.0
2016/01/01 00:55:00.000  -1123224.9001   4788905.9635   4614962.3765   6   8   1.3051   1.8405   3.0941  -0.8034   1.6842   0.8061   0.00    0.0
2016/01/01 00:55:10.000  -1123224.6080   4788906.1313   4614962.0758   0   0  30.0000  30.0000  30.0000   0.0000   0.0000   0.0000   0.00    0.0
2016/01/01 00:55:20.000  -1143481.3351   4891136.3887   4501883.6720   6   8   1.3117   1.8065   3.0768  -0.8010   1.6526   0.8209   0.00    0.0
2016/01/01 00:55:30.000  -1153277.8603   4941329.4462   4444462.4461   6   8   1.3151   1.7885   3.0682  -0.7996   1.6362   0.8284   0.00    0.0
2016/01/01 00:55:40.000  -1162852.6835   4990898.5970   4386463.5193   6   8   1.3187   1.7822   3.0620  -0.8006   1.6272   0.8346   0.00    0.0
2016/01/01 00:55:50.000  -1172205.4299   5039836.9582   4327894.2047   6   7   1.3294   2.3074   3.1682  -0.9176   1.9619   0.7709   0.00    0.0
2016/01/01 00:56:00.000  -1181336.1669   5088138.2481   4268762.0502   6   7   1.3334   2.3080   3.1633  -0.9210   1.9571   0.7763   0.00    0.0
2016/01/01 00:56:10.000  -1190244.3567   5135795.8998   4209075.0355   6   7   1.3376   2.3088   3.1587  -0.9246   1.9525   0.7818   0.00    0.0
2016/01/01 00:56:20.000  -1198929.8038   5182803.1305   4148840.7362   6   7   1.3418   2.3099   3.1543  -0.9283   1.9480   0.7874   0.00    0.0
2016/01/01 00:56:30.000  -1207392.1695   5229153.7761   4088067.7389   6   8   1.3196   2.2792   2.6698  -0.9855   1.7709   0.4277   0.00    0.0
2016/01/01 00:56:40.000  -1215631.6897   5274841.6049   4026762.3378   6   8   1.3050   2.2605   2.3005  -1.0233   1.6462  -0.3323   0.00    0.0
2016/01/01 00:56:50.000  -1223648.0354   5319859.9295   3964933.6576   6   8   1.3020   2.2569   2.1593  -1.0384   1.6028  -0.4620   0.00    0.0
2016/01/01 00:57:00.000  -1231441.4657   5364202.9971   3902589.1577   6   8   1.3019   2.2574   2.0823  -1.0480   1.5812  -0.5184   0.00    0.0
2016/01/01 00:57:10.000  -1239011.5218   5407864.7672   3839737.0253   6   8   1.3031   2.2596   2.0329  -1.0554   1.5688  -0.5522   0.00    0.0
2016/01/01 00:57:20.000  -1246358.4888   5450839.1143   3776386.0134   6   8   1.3050   2.2630   1.9979  -1.0619   1.5611  -0.5759   0.00    0.0
2016/01/01 00:57:30.000  -1253482.3425   5493119.9818   3712543.7092   6   8   1.3072   2.2671   1.9715  -1.0678   1.5563  -0.5940   0.00    0.0
2016/01/01 00:57:40.000  -1260383.2682   5534701.8310   3648218.6085   6   8   1.3098   2.2718   1.9509  -1.0735   1.5534  -0.6089   0.00    0.0
2016/01/01 00:57:50.000  -1267061.1235   5575578.7749   3583419.1935   6   8   1.3126   2.2770   1.9341  -1.0789   1.5519  -0.6216   0.00    0.0
2016/01/01 00:58:00.000  -1273516.7194   5615745.8385   3518153.9825   6   8   1.3155   2.2827   1.9204  -1.0843   1.5515  -0.6328   0.00    0.0
2016/01/01 00:58:10.000  -1279749.4959   5655196.8844   3452431.3607   6   8   1.3186   2.2887   1.9089  -1.0896   1.5519  -0.6429   0.00    0.0
2016/01/01 00:58:20.000  -1285760.1601   5693926.4996   3386259.4503   6   8   1.3219   2.2952   1.8992  -1.0949   1.5531  -0.6523   0.00    0.0
2016/01/01 00:58:30.000  -1291548.8068   5731929.6719   3319647.5339   6   8   1.3252   2.3020   1.8910  -1.1002   1.5548  -0.6610   0.00    0.0
2016/01/01 00:58:40.000  -1297115.8476   5769201.1709   3252603.9437   6   8   1.3287   2.3092   1.8841  -1.1056   1.5571  -0.6693   0.00    0.0
2016/01/01 00:58:50.000  -1302461.7414   5805735.7477   3185137.4168   6   8   1.3322   2.3167   1.8783  -1.1110   1.5599  -0.6772   0.00    0.0
2016/01/01 00:59:00.000  -1307586.5189   5841528.4594   3117256.8838   6   8   1.3359   2.3245   1.8734  -1.1165   1.5632  -0.6849   0.00    0.0
2016/01/01 00:59:10.000  -1312491.0220   5876574.0446   3048970.8941   6   8   1.3396   2.3326   1.8694  -1.1220   1.5668  -0.6923   0.00    0.0
2016/01/01 00:59:20.000  -1317175.4877   5910868.0992   2980288.4312   6   8   1.3434   2.3410   1.8661  -1.1276   1.5708  -0.6996   0.00    0.0
2016/01/01 00:59:30.000  -1321640.1881   5944405.5566   2911218.6418   6   8   1.3473   2.3495   1.8636  -1.1333   1.5752  -0.7067   0.00    0.0
2016/01/01 00:59:40.000  -1325886.1985   5977182.0594   2841770.1307   6   8   1.3512   2.3584   1.8616  -1.1391   1.5800  -0.7137   0.00    0.0
2016/01/01 00:59:50.000  -1329913.6074   6009192.7545   2771952.3949   6   8   1.3552   2.3673   1.8603  -1.1449   1.5850  -0.7206   0.00    0.0
2016/01/01 01:00:00.000  -1333723.3545   6040433.5111   2701774.1281   6   8   1.3593   2.3765   1.8594  -1.1507   1.5903  -0.7274   0.00    0.0
2016/01/01 01:00:10.000  -1337316.0687   6070900.0709   2631244.8249   6   8   1.3634   2.3858   1.8591  -1.1567   1.5960  -0.7342   0.00    0.0
2016/01/01 01:00:20.000  -1340692.1360   6100587.6828   2560373.3764   6   9   1.3637   2.3652   1.7843  -1.1791   1.5391  -0.7761   0.00    0.0
2016/01/01 01:00:30.000  -1343852.3107   6129492.4647   2489168.9931   6   9   1.3621   2.3229   1.6601  -1.2109   1.4369  -0.8335   0.00    0.0
2016/01/01 01:00:40.000  -1346797.5341   6157610.5806   2417641.0457   6   9   1.3644   2.3128   1.6156  -1.2256   1.4029  -0.8558   0.00    0.0
2016/01/01 01:00:50.000  -1349528.4579   6184937.9740   2345798.8449   6   9   1.3678   2.3109   1.5924  -1.2361   1.3869  -0.8698   0.00    0.0
2016/01/01 01:01:00.000  -1352045.7926   6211470.6819   2273651.6740   6   9   1.3715   2.3123   1.5780  -1.2449   1.3784  -0.8804   0.00    0.0
2016/01/01 01:01:10.000  -1354350.6318   6237205.3727   2201208.8106   6   9   1.6528   2.7191   1.5739  -1.6960   1.4410  -0.9553   0.00    0.0
2016/01/01 01:01:20.000  -1356443.7273   6262137.9613   2128479.9818   6   9   1.5266   2.5326   1.5641  -1.5012   1.4051  -0.9305   0.00    0.0
2016/01/01 01:01:30.000  -1358325.9193   6286265.2700   2055474.4736   6   9   1.4847   2.4706   1.5581  -1.4343   1.3931  -0.9270   0.00    0.0
2016/01/01 01:01:40.000  -1359998.2699   6309583.8372   1982201.7038   6   9   1.4652   2.4432   1.5539  -1.4027   1.3876  -0.9287   0.00    0.0
2016/01/01 01:01:50.000  -1361461.8758   6332090.5870   1908671.5400   6   9   1.4549   2.4374   1.5509  -1.3858   1.3850  -0.9324   0.00    0.0
2016/01/01 01:02:00.000  -1362717.2932   6353781.8517   1834893.1103   6   8   1.4495   2.7982   1.5488  -1.3849   1.3740  -0.9368   0.00    0.0
2016/01/01 01:02:10.000  -1363766.0778   6374654.9079   1760876.2674   6   8   1.4478   2.7897   1.5476  -1.3798   1.3749  -0.9428   0.00    0.0
2016/01/01 01:02:20.000  -1364609.0184   6394706.7369   1686630.5900   6   7   1.7593   3.5560   1.5548  -2.0272   1.4978  -1.0286   0.00    0.0
2016/01/01 01:02:30.000  -1365246.9997   6413934.2333   1612165.7350   6   9   1.7489   3.5181   1.5544  -2.0035   1.4964  -1.0322   0.00    0.0
2016/01/01 01:02:40.000  -1365681.8649   6432335.2609   1537491.4458   6   9   1.7285   3.1778   1.5547  -1.8941   1.4899  -1.0366   0.00    0.0
2016/01/01 01:02:50.000  -1365913.9726   6449906.4154   1462617.1817   6   7   1.7666   3.5574   1.5558  -2.0349   1.5103  -1.0495   0.00    0.0
2016/01/01 01:03:00.000  -1365944.7942   6466645.6637   1387552.8617   6   7   1.7692   3.5583   1.5569  -2.0375   1.5149  -1.0564   0.00    0.0
2016/01/01 01:03:10.000  -1365775.7803   6482550.6271   1312308.3549   6   7   1.7719   3.5595   1.5582  -2.0402   1.5197  -1.0633   0.00    0.0
2016/01/01 01:03:20.000  -1365407.8545   6497618.2540   1236893.3126   6   8   1.7733   3.5575   1.5598  -2.0403   1.5241  -1.0698   0.00    0.0
2016/01/01 01:03:30.000  -1364842.7325   6511847.9882   1161317.6553   6   7   1.7776   3.5623   1.5618  -2.0456   1.5298  -1.0771   0.00    0.0
2016/01/01 01:03:40.000  -1364081.1230   6525236.1451   1085591.0931   6   7   1.7805   3.5640   1.5640  -2.0484   1.5351  -1.0841   0.00    0.0
2016/01/01 01:03:50.000  -1363124.5517   6537780.7457   1009723.3118   6   7   1.7836   3.5659   1.5664  -2.0513   1.5404  -1.0910   0.00    0.0
2016/01/01 01:04:00.000  -1361974.6565   6549481.0596    933724.4178   6   8   1.7822   3.5571   1.5690  -2.0457   1.5439  -1.0967   0.00    0.0
2016/01/01 01:04:10.000  -1360632.7532   6560334.5443    857604.2669   6   7   1.7899   3.5701   1.5721  -2.0572   1.5515  -1.1050   0.00    0.0
2016/01/01 01:04:20.000  -1359100.1228   6570339.7758    781372.7465   6   7   1.7932   3.5724   1.5752  -2.0602   1.5571  -1.1121   0.00    0.0
2016/01/01 01:04:30.000  -1357378.0214   6579495.1190    705039.6112   6   7   1.7966   3.5749   1.5786  -2.0632   1.5629  -1.1191   0.00    0.0
2016/01/01 01:04:40.000  -1355468.3330   6587799.5748    628614.8808   6   7   1.8001   3.5775   1.5823  -2.0663   1.5687  -1.1262   0.00    0.0
2016/01/01 01:04:50.000  -1353372.4395   6595251.5517    552108.7252   6   7   1.8037   3.5803   1.5861  -2.0695   1.5746  -1.1334   0.00    0.0
2016/01/01 01:05:00.000  -1351091.7335   6601849.7692    475530.7115   6   7   1.8074   3.5832   1.5902  -2.0727   1.5806  -1.1406   0.00    0.0
2016/01/01 01:05:10.000  -1348627.7445   6607593.7290    398891.2515   6   8   1.8041   3.4844   1.5450  -2.0431   1.4774  -1.1201   0.00    0.0
2016/01/01 01:05:20.000  -1345982.1669   6612481.5801    322199.5134   6   8   1.7960   3.3190   1.4704  -1.9912   1.2954  -1.0815   0.00    0.0
2016/01/01 01:05:30.000  -1343156.6916   6616512.8109    245466.0867   6   8   1.7954   3.2603   1.4463  -1.9740   1.2291  -1.0719   0.00    0.0
2016/01/01 01:05:40.000  -1340152.7301   6619686.6684    168700.6991   6   8   1.7967   3.2294   1.4355  -1.9656   1.1950  -1.0699   0.00    0.0
2016/01/01 01:05:50.000  -1336972.0376   6622002.6291     91913.4900   6   8   1.7989   3.2099   1.4303  -1.9609   1.1744  -1.0710   0.00    0.0
2016/01/01 01:06:00.000  -1333616.1912   6623459.9724     15114.2345   6   9   1.6637   3.0445   1.3407  -1.7780   0.9322  -0.9017   0.00    0.0
2016/01/01 01:06:10.000  -1330087.1506   6624058.8739    -61686.7163   6   9   1.5119   2.8883   1.2533  -1.5822   0.6379  -0.6986   0.00    0.0
2016/01/01 01:06:20.000  -1326386.5444   6623799.0296   -138479.7112   6   9   1.4562   2.8291   1.2212  -1.5079   0.4880  -0.6144   0.00    0.0
2016/01/01 01:06:30.000  -1322516.0494   6622679.7214   -215254.6987   6   9   1.4265   2.7960   1.2041  -1.4672   0.3809  -0.5665   0.00    0.0
2016/01/01 01:06:40.000  -1318477.2376   6620701.0036   -292001.7537   6   9   1.4076   2.7742   1.1935  -1.4406   0.2887  -0.5350   0.00    0.0
2016/01/01 01:06:50.000  -1314272.1242   6617863.3682   -368710.8263   6   9   1.3942   2.7583   1.1864  -1.4214   0.1947  -0.5122   0.00    0.0
2016/01/01 01:07:00.000  -1309902.5864   6614166.8521   -445372.2319   6   9   1.3842   2.7461   1.1814  -1.4066   0.0454  -0.4949   0.00    0.0
2016/01/01 01:07:10.000  -1305370.3874   6609611.7299   -521975.6204   6   9   1.3762   2.7362   1.1778  -1.3946  -0.1660  -0.4811   0.00    0.0
2016/01/01 01:07:20.000  -1300677.1401   6604198.2447   -598511.5105   6   9   1.3697   2.7282   1.1753  -1.3846  -0.2300  -0.4698   0.00    0.0
2016/01/01 01:07:30.000  -1295824.8445   6597926.9895   -674969.7314   6   9   1.3642   2.7214   1.1736  -1.3761  -0.2740  -0.4602   0.00    0.0
2016/01/01 01:07:40.000  -1290815.5491   6590798.9489   -751340.3172   6   9   1.3595   2.7157   1.1725  -1.3687  -0.3082  -0.4520   0.00    0.0
2016/01/01 01:07:50.000  -1285651.2151   6582814.6073   -827613.4825   6   9   1.3554   2.7108   1.1719  -1.3622  -0.3362  -0.4449   0.00    0.0
2016/01/01 01:08:00.000  -1280333.3509   6573974.8605   -903779.4006   6   9   1.3519   2.7066   1.1718  -1.3565  -0.3600  -0.4385   0.00    0.0
2016/01/01 01:08:10.000  -1274864.4270   6564280.8904   -979827.9737   6   9   1.3487   2.7030   1.1721  -1.3514  -0.3807  -0.4329   0.00    0.0
2016/01/01 01:08:20.000  -1269245.7546   6553733.1422  -1055749.6913   6   9   1.3459   2.7000   1.1727  -1.3468  -0.3992  -0.4277   0.00    0.0
