% pos mode  : single
% elev mask : -5.0 deg
% ionos opt : iono-free
% tropo opt : off
% ephemeris : broadcast
%  GPST                      x-ecef(m)      y-ecef(m)      z-ecef(m)   Q  ns   sdx(m)   sdy(m)   sdz(m)  sdxy(m)  sdyz(m)  sdzx(m) age(s)  ratio
2016/01/01 00:01:40.000    864274.3651  -1903443.8460  -6432327.7673   6   7   2.4290   2.6234   8.5011   0.9129  -2.4752  -1.8777   0.00    0.0
2016/01/01 00:01:50.000    896825.9522  -1968413.3454  -6408218.8761   6   8   1.9363   2.1605   6.5916   0.7565  -1.9679  -1.4691   0.00    0.0
2016/01/01 00:02:00.000    929168.8487  -2033178.9176  -6383286.1051   6   8   1.6904   1.9594   5.5318   0.5880  -1.5986  -0.9743   0.00    0.0
2016/01/01 00:02:10.000    961298.6350  -2097731.8494  -6357533.5422   6   8   1.6610   1.9011   5.5667   0.6902  -1.7355  -1.3709   0.00    0.0
2016/01/01 00:02:20.000    993211.5378  -2162062.8201  -6330964.8777   6   9   1.6010   1.8521   5.2036   0.6727  -1.4788  -1.3654   0.00    0.0
2016/01/01 00:02:30.000   1024904.0527  -2226165.0386  -6303580.6047   6   9   1.4803   1.7738   4.6098   0.5679  -1.2287  -0.9180   0.00    0.0
2016/01/01 00:02:40.000   1056372.3719  -2290028.5915  -6275385.8645   6   9   1.4207   1.6534   4.3219   0.5283  -1.0719  -0.6988   0.00    0.0
2016/01/01 00:02:50.000   1087612.7131  -2353645.4677  -6246384.3647   6   8   1.5451   1.7499   4.9804   0.6535  -1.4092  -1.4795   0.00    0.0
2016/01/01 00:03:00.000   1118621.7856  -2417007.3296  -6216579.4662   6   8   1.5322   1.7424   4.9199   0.6399  -1.4063  -1.4809   0.00    0.0
2016/01/01 00:03:10.000   1149395.8583  -2480105.8533  -6185974.2253   6   7   1.5240   1.7715   4.8714   0.6096  -1.4113  -1.4816   0.00    0.0
2016/01/01 00:03:20.000   1179930.9935  -2542931.9802  -6154574.2882   6   7   1.5174   1.7652   4.8316   0.5972  -1.4127  -1.4836   0.00    0.0
2016/01/01 00:03:30.000   1210224.1198  -2605477.5852  -6122381.7608   6   7   1.5127   1.7609   4.7984   0.5851  -1.4159  -1.4858   0.00    0.0
2016/01/01 00:03:40.000   1240271.6111  -2667734.3890  -6089401.4199   6   7   1.5095   1.7582   4.7704   0.5733  -1.4203  -1.4881   0.00    0.0
2016/01/01 00:03:50.000   1270069.9828  -2729693.9290  -6055637.7085   6   7   1.5076   1.7566   4.7464   0.5617  -1.4256  -1.4904   0.00    0.0
2016/01/01 00:04:00.000   1299615.9855  -2791347.9885  -6021095.2348   6   7   1.5066   1.7560   4.7258   0.5502  -1.4317  -1.4928   0.00    0.0
2016/01/01 00:04:10.000   1328906.2294  -2852688.0411  -5985777.2781   6   7   1.5063   1.7562   4.7080   0.5388  -1.4383  -1.4953   0.00    0.0
2016/01/01 00:04:20.000   1357937.3624  -2913706.0098  -5949689.6661   6   7   1.5066   1.7570   4.6924   0.5275  -1.4453  -1.4977   0.00    0.0
2016/01/01 00:04:30.000   1386706.1835  -2974393.7922  -5912833.9439   6   8   1.5072   1.7168   3.9804   0.5068  -1.0846  -1.4786   0.00    0.0
2016/01/01 00:04:40.000   1415209.4174  -3034743.0783  -5875219.2876   6   8   1.5082   1.6887   3.4996   0.4879  -0.7773  -1.4659   0.00    0.0
2016/01/01 00:04:50.000   1443443.9977  -3094745.8625  -5836847.0340   6   8   1.5097   1.6789   3.3121   0.4745  -0.6398  -1.4643   0.00    0.0
2016/01/01 00:05:00.000   1471404.2176  -3154391.6345  -5797721.5982   6   8   3.4886   2.9535   4.2240  -2.6878   2.4282  -3.2709   0.00    0.0
2016/01/01 00:05:10.000   1499092.9616  -3213677.5406  -5757852.0506   6   7   3.7672   3.1301   4.3433  -2.9523   2.6897  -3.5253   0.00    0.0
2016/01/01 00:05:20.000   1526503.0209  -3272592.1778  -5717240.3966   6   8   3.0273   2.5392   3.8959  -2.1512   1.9850  -2.8850   0.00    0.0
2016/01/01 00:05:30.000   1553632.7863  -3331128.1364  -5675893.0977   6   7   4.3346   3.5645   4.6185  -3.5206   3.2092  -4.0217   0.00    0.0
2016/01/01 00:05:40.000   1580478.1739  -3389277.0054  -5633813.8871   6   7   4.3701   3.5700   4.6276  -3.5424   3.2368  -4.0587   0.00    0.0
2016/01/01 00:05:50.000   1607037.0451  -3447031.8511  -5591009.3519   6   7   4.4037   3.5743   4.6406  -3.5621   3.2620  -4.0947   0.00    0.0
2016/01/01 00:06:00.000   1633305.8516  -3504383.0556  -5547483.5614   6   6   4.4188   3.5662   4.6442  -3.5647   3.2707  -4.1139   0.00    0.0
2016/01/01 00:06:20.000   1684964.8363  -3617848.0722  -5458294.8138   6   6   4.4229   3.5337   4.6490  -3.5453   3.2638  -4.1298   0.00    0.0
2016/01/01 00:06:30.000   1710348.4743  -3673945.4586  -5412641.5867   6   6   4.4246   3.5173   4.6490  -3.5355   3.2606  -4.1374   0.00    0.0
2016/01/01 00:06:40.000   1735432.0092  -3729609.6440  -5366291.3752   6   6   4.4267   3.5011   4.6510  -3.5259   3.2574  -4.1456   0.00    0.0
2016/01/01 00:06:50.000   1760212.3623  -3784832.8466  -5319248.8810   6   6   4.4292   3.4853   4.6550  -3.5165   3.2543  -4.1544   0.00    0.0
2016/01/01 00:07:00.000   1784687.4352  -3839607.4322  -5271520.8578   6   6   4.4319   3.4698   4.6606  -3.5072   3.2513  -4.1636   0.00    0.0
2016/01/01 00:07:10.000   1808853.8149  -3893925.2115  -5223112.0148   6   6   4.4350   3.4547   4.6676  -3.4982   3.2485  -4.1734   0.00    0.0
2016/01/01 00:07:20.000   1832711.6061  -3947780.8563  -5174032.4555   6   7   3.7027   3.2502   3.6222  -3.0690   2.6840  -3.2039   0.00    0.0
2016/01/01 00:07:30.000   1856255.6079  -4001164.8434  -5124284.8148   6   7   3.3055   3.1427   3.0470  -2.8411   2.3813  -2.6516   0.00    0.0
2016/01/01 00:07:40.000   1879483.7264  -4054070.0059  -5073874.6555   6   7   3.1525   3.0962   2.8203  -2.7511   2.2651  -2.4321   0.00    0.0
2016/01/01 00:07:50.000   1902394.3058  -4106489.5796  -5022810.7475   6   8   2.8582   3.0091   2.4583  -2.5742   2.0480  -2.0269   0.00    0.0
2016/01/01 00:08:00.000   1924985.5209  -4158416.6991  -4971098.7619   6   8   2.6862   2.9533   2.2695  -2.4673   1.9280  -1.7946   0.00    0.0
2016/01/01 00:08:10.000   1947254.0523  -4209843.1326  -4918745.0577   6   8   2.6097   2.9255   2.1799  -2.4189   1.8761  -1.6871   0.00    0.0
2016/01/01 00:08:20.000   1969198.7796  -4260762.3533  -4865756.8589   6   8   2.5619   2.9057   2.1235  -2.3875   1.8448  -1.6203   0.00    0.0
2016/01/01 00:08:30.000   1990817.4476  -4311167.6443  -4812140.5791   6   8   2.5273   2.8896   2.0838  -2.3639   1.8230  -1.5732   0.00    0.0
2016/01/01 00:08:40.000   2012107.2718  -4361050.9668  -4757902.7403   6   8   2.5002   2.8757   2.0537  -2.3446   1.8066  -1.5375   0.00    0.0
2016/01/01 00:08:50.000   2033067.3441  -4410406.8411  -4703051.2939   6   8   2.4779   2.8632   2.0300  -2.3281   1.7935  -1.5091   0.00    0.0
2016/01/01 00:09:00.000   2053694.9411  -4459227.5022  -4647592.4288   6   8   2.4587   2.8518   2.0108  -2.3135   1.7827  -1.4857   0.00    0.0
2016/01/01 00:09:10.000   2073988.4040  -4507506.0019  -4591533.3680   6   8   2.4420   2.8413   1.9948  -2.3003   1.7736  -1.4659   0.00    0.0
2016/01/01 00:09:20.000   2093945.7985  -4555235.8915  -4534881.1963   6   8   2.4271   2.8315   1.9813  -2.2883   1.7658  -1.4488   0.00    0.0
2016/01/01 00:09:30.000   2113565.3981  -4602410.3379  -4477643.2158   6   8   2.4136   2.8224   1.9697  -2.2772   1.7589  -1.4339   0.00    0.0
2016/01/01 00:09:40.000   2132845.5161  -4649022.7649  -4419827.0808   6   8   2.4014   2.8138   1.9598  -2.2669   1.7528  -1.4206   0.00    0.0
2016/01/01 00:09:50.000   2151784.5903  -4695066.8970  -4361439.7851   6   8   2.3901   2.8057   1.9511  -2.2572   1.7475  -1.4087   0.00    0.0
2016/01/01 00:10:00.000   2170380.5095  -4740535.2129  -4302488.9017   6   8   2.3796   2.7981   1.9435  -2.2482   1.7427  -1.3979   0.00    0.0
2016/01/01 00:10:10.000   2188632.4959  -4785422.9624  -4242982.2047   6   8   2.3700   2.7910   1.9369  -2.2397   1.7384  -1.3882   0.00    0.0
2016/01/01 00:10:20.000   2206538.1550  -4829722.4324  -4182926.9638   6   8   2.3609   2.7844   1.9311  -2.2318   1.7345  -1.3792   0.00    0.0
2016/01/01 00:10:30.000   2224096.7276  -4873428.0050  -4122330.9687   6   8   2.3525   2.7782   1.9260  -2.2242   1.7310  -1.3709   0.00    0.0
2016/01/01 00:10:40.000   2241306.2728  -4916533.3124  -4061202.2961   6   8   2.3446   2.7724   1.9215  -2.2172   1.7279  -1.3633   0.00    0.0
2016/01/01 00:10:50.000   2258165.8076  -4959032.5823  -3999548.5964   6   8   2.3373   2.7670   1.9176  -2.2105   1.7251  -1.3563   0.00    0.0
2016/01/01 00:11:00.000   2274673.5073  -5000918.7882  -3937377.4270   6   8   2.3303   2.7620   1.9142  -2.2042   1.7226  -1.3497   0.00    0.0
2016/01/01 00:11:10.000   2290828.7668  -5042187.0992  -3874697.2212   6   8   2.3239   2.7574   1.9113  -2.1983   1.7204  -1.3436   0.00    0.0
2016/01/01 00:11:20.000   2306630.0520  -5082830.9722  -3811515.7984   6   8   2.3178   2.7532   1.9088  -2.1928   1.7185  -1.3379   0.00    0.0
2016/01/01 00:11:30.000   2322076.1603  -5122845.0062  -3747841.4577   6   8   2.3121   2.7494   1.9067  -2.1876   1.7168  -1.3326   0.00    0.0
2016/01/01 00:11:40.000   2337166.0774  -5162222.9468  -3683682.1823   6   8   2.3068   2.7460   1.9050  -2.1828   1.7154  -1.3276   0.00    0.0
2016/01/01 00:11:50.000   2351898.8008  -5200959.4731  -3619046.0844   6   8   2.3018   2.7429   1.9036  -2.1782   1.7142  -1.3229   0.00    0.0
2016/01/01 00:12:00.000   2366273.2741  -5239048.8562  -3553941.6749   6   8   2.2972   2.7402   1.9026  -2.1741   1.7132  -1.3185   0.00    0.0
2016/01/01 00:12:10.000   2380288.5367  -5276485.7697  -3488377.6171   6   8   2.2929   2.7379   1.9018  -2.1702   1.7124  -1.3144   0.00    0.0
2016/01/01 00:12:20.000   2393943.9601  -5313264.9010  -3422361.7881   6   8   2.2889   2.7360   1.9014  -2.1667   1.7119  -1.3106   0.00    0.0
2016/01/01 00:12:30.000   2407238.1506  -5349379.8828  -3355902.7239   6   9   2.2728   3.0170   1.9103  -2.1504   1.8764  -1.2590   0.00    0.0
2016/01/01 00:12:40.000   2420170.8460  -5384826.7775  -3289009.4291   6   9   2.2520   2.8360   1.7334  -2.1168   1.6828  -1.1750   0.00    0.0
2016/01/01 00:12:50.000   2432741.4553  -5419599.9328  -3221690.6125   6   5   3.4093   4.5725   3.3754  -3.6303   3.5853  -2.9415   0.00    0.0
2016/01/01 00:13:00.000   2444947.9476  -5453693.3741  -3153953.7497   6   9   2.2405   2.7475   1.6550  -2.1006   1.5901  -1.1377   0.00    0.0
2016/01/01 00:13:10.000   2456791.6771  -5487103.8672  -3085808.9457   6   9   2.2351   2.7240   1.6224  -2.0933   1.5591  -1.1193   0.00    0.0
2016/01/01 00:13:20.000   2468270.8122  -5519825.3037  -3017264.3081   6   9   2.2312   2.7088   1.6008  -2.0882   1.5385  -1.1066   0.00    0.0
2016/01/01 00:13:30.000   2479385.1542  -5551853.1578  -2948328.8003   6   9   2.2281   2.6983   1.5850  -2.0844   1.5236  -1.0969   0.00    0.0
2016/01/01 00:13:40.000   2490134.4585  -5583182.8853  -2879011.3541   6   9   2.2257   2.6909   1.5727  -2.0814   1.5122  -1.0890   0.00    0.0
2016/01/01 00:13:50.000   2500518.1949  -5613809.3212  -2809320.7688   6   9   2.2237   2.6855   1.5627  -2.0792   1.5031  -1.0823   0.00    0.0
2016/01/01 00:14:00.000   2510535.7626  -5643728.0378  -2739266.0357   6   9   2.2221   2.6817   1.5543  -2.0775   1.4956  -1.0765   0.00    0.0
2016/01/01 00:14:10.000   2520187.3681  -5672935.3251  -2668856.2837   6   9   2.2209   2.6792   1.5471  -2.0763   1.4894  -1.0713   0.00    0.0
2016/01/01 00:14:20.000   2529472.6255  -5701426.1290  -2598100.6684   6   9   2.2200   2.6777   1.5409  -2.0755   1.4841  -1.0667   0.00    0.0
2016/01/01 00:14:30.000   2538391.1146  -5729195.9913  -2527008.0799   6   9   2.2195   2.6770   1.5355  -2.0751   1.4796  -1.0625   0.00    0.0
2016/01/01 00:14:40.000   2546942.9182  -5756241.0428  -2455587.9535   6   9   2.2192   2.6771   1.5307  -2.0751   1.4757  -1.0587   0.00    0.0
2016/01/01 00:14:50.000   2555127.6583  -5782557.4666  -2383849.3852   6   9   2.2194   2.9585   1.5754  -2.0663   1.6306  -1.0497   0.00    0.0
2016/01/01 00:15:00.000   2562945.3780  -5808140.3525  -2311801.7510   6   9   2.2196   2.8172   1.5460  -2.0723   1.5471  -1.0498   0.00    0.0
2016/01/01 00:15:10.000   2570396.3623  -5832986.3374  -2239454.2627   6   9   2.2201   2.7704   1.5340  -2.0750   1.5171  -1.0480   0.00    0.0
2016/01/01 00:15:20.000   2577480.4902  -5857091.4600  -2166816.2316   6   9   2.2210   2.9826   1.5671  -2.0721   1.6319  -1.0429   0.00    0.0
2016/01/01 00:15:30.000   2584197.9688  -5880452.6614  -2093897.1694   6   9   2.3332   3.6301   1.5426  -2.4351   1.6314  -1.0829   0.00    0.0
2016/01/01 00:15:40.000   2590548.8884  -5903065.0882  -2020706.3371   6   9   2.2866   3.3225   1.5322  -2.3012   1.5912  -1.0741   0.00    0.0
2016/01/01 00:15:50.000   2596533.6715  -5924926.5876  -1947253.4409   6   9   2.2710   3.1852   1.5256  -2.2497   1.5665  -1.0677   0.00    0.0
2016/01/01 00:16:00.000   2602152.5376  -5946032.8536  -1873547.7730   6   9   2.2639   3.1057   1.5209  -2.2226   1.5503  -1.0629   0.00    0.0
2016/01/01 00:16:10.000   2607405.7988  -5966380.4638  -1799598.9174   6   9   2.2605   3.0542   1.5173  -2.2064   1.5388  -1.0592   0.00    0.0
2016/01/01 00:16:20.000   2612293.8521  -5985966.6570  -1725416.4269   6   8   2.3750   3.5443   1.5147  -2.4866   1.5370  -1.0596   0.00    0.0
2016/01/01 00:16:30.000   2616817.1307  -6004788.1710  -1651009.8916   6   8   2.3778   3.5283   1.5126  -2.4858   1.5324  -1.0579   0.00    0.0
2016/01/01 00:16:40.000   2620976.1731  -6022841.9120  -1576389.2610   6   8   2.3810   3.5163   1.5109  -2.4862   1.5292  -1.0567   0.00    0.0
2016/01/01 00:16:50.000   2624771.6699  -6040124.9734  -1501564.0047   6   8   2.3846   3.5072   1.5095  -2.4876   1.5270  -1.0558   0.00    0.0
2016/01/01 00:17:00.000   2628203.9369  -6056634.2810  -1426543.8360   6   8   2.3886   3.5005   1.5083  -2.4897   1.5256  -1.0553   0.00    0.0
2016/01/01 00:17:10.000   2631273.7271  -6072367.3427  -1351338.2851   6   8   2.3929   3.4957   1.5075  -2.4926   1.5250  -1.0551   0.00    0.0
2016/01/01 00:17:20.000   2633981.5693  -6087321.2108  -1275957.1243   6   9   2.2288   3.3233   1.4586  -2.2982   1.3854  -0.8828   0.00    0.0
2016/01/01 00:17:30.000   2636328.6171  -6101494.0815  -1200410.4298   6   9   2.0221   3.1338   1.4048  -2.0634   1.2209  -0.6393   0.00    0.0
2016/01/01 00:17:40.000   2638315.3945  -6114881.7245  -1124707.4657   6   8   1.9747   4.7746   1.4521  -2.2605   1.7113  -0.6503   0.00    0.0
2016/01/01 00:17:50.000   2639942.8232  -6127484.2844  -1048858.5849   6   9   1.9274   4.3722   1.4244  -2.1278   1.5553  -0.5561   0.00    0.0
2016/01/01 00:18:00.000   2641211.9506  -6139298.0131   -972873.4165   6   9   1.8975   3.7481   1.3976  -2.0249   1.3529  -0.4811   0.00    0.0
2016/01/01 00:18:10.000   2642123.8180  -6150322.7343   -896761.9644   6   9   1.8827   4.3268   1.4132  -2.0571   1.5192  -0.4721   0.00    0.0
2016/01/01 00:18:20.000   2642679.2358  -6160554.0497   -820533.9395   6   9   1.8658   3.7076   1.3898  -1.9726   1.3222  -0.4102   0.00    0.0
2016/01/01 00:18:30.000   2642879.3436  -6169990.9094   -744199.3628   6   9   1.8544   3.4664   1.3806  -1.9337   1.2427  -0.3705   0.00    0.0
2016/01/01 00:18:40.000   2642725.0132  -6178631.5499   -667767.9405   6   9   1.8517   4.3138   1.4088  -2.0116   1.5052  -0.3992   0.00    0.0
2016/01/01 00:18:50.000   2642217.6194  -6186474.0056   -591249.8806   6   8   1.8479   4.5196   1.4176  -2.0336   1.5735  -0.3998   0.00    0.0
2016/01/01 00:19:00.000   2641358.2175  -6193516.8259   -514654.8709   6   9   1.8410   4.3196   1.4095  -1.9979   1.5065  -0.3664   0.00    0.0
2016/01/01 00:19:10.000   2640148.2460  -6199758.9369   -437993.0395   6  10   1.8307   3.4204   1.2885  -1.8888   0.9958  -0.2137   0.00    0.0
2016/01/01 00:19:20.000   2638588.8655  -6205198.6453   -361274.2525   6   9   1.8297   3.6387   1.2214  -1.9159   0.7442  -0.1438   0.00    0.0
2016/01/01 00:19:30.000   2636681.3751  -6209834.7398   -284508.5014   6   9   1.8270   3.5340   1.1990  -1.9056   0.5938  -0.0697   0.00    0.0
2016/01/01 00:19:40.000   2634427.1197  -6213665.5635   -207705.8303   6   9   1.8251   3.4755   1.1869  -1.9004   0.4933   0.0762   0.00    0.0
2016/01/01 00:19:50.000   2631827.7806  -6216690.2988   -130876.1732   6   9   1.8239   3.4373   1.1792  -1.8979   0.4158   0.1183   0.00    0.0
2016/01/01 00:20:00.000   2628884.5251  -6218908.1423    -54029.4857   6   9   1.8232   3.4101   1.1740  -1.8970   0.3503   0.1439   0.00    0.0
2016/01/01 00:20:10.000   2625599.2268  -6220318.4046     22824.1422   6  10   1.8226   3.3586   1.1701  -1.8927   0.3052   0.1603   0.00    0.0
2016/01/01 00:20:20.000   2621973.4762  -6220920.5387     99674.8587   6   9   1.8232   3.3736   1.1675  -1.8984   0.2324   0.1771   0.00    0.0
2016/01/01 00:20:30.000   2618008.4513  -6220713.3342    176512.4418   6  10   1.8234   3.3381   1.1654  -1.8969   0.1915   0.1873   0.00    0.0
2016/01/01 00:20:40.000   2613706.3325  -6219696.7954    253327.3180   6  10   1.8244   3.3314   1.1640  -1.8999   0.1219   0.1976   0.00    0.0
2016/01/01 00:20:50.000   2609068.3218  -6217869.6165    330109.0862   6   9   1.8259   3.3428   1.1632  -1.9061  -0.0998   0.2078   0.00    0.0
2016/01/01 00:21:00.000   2604096.9104  -6215232.8725    406847.9449   6   9   1.8274   3.3364   1.1627  -1.9097  -0.1602   0.2153   0.00    0.0
2016/01/01 00:21:10.000   2598793.0729  -6211785.1238    483533.8633   6   9   1.8292   3.3313   1.1625  -1.9138  -0.1989   0.2219   0.00    0.0
2016/01/01 00:21:20.000   2593159.4310  -6207527.1398    560157.0000   6   9   1.8313   3.3275   1.1626  -1.9183  -0.2280   0.2277   0.00    0.0
2016/01/01 00:21:30.000   2587197.3348  -6202458.4935    636707.1263   6   9   1.8337   3.3247   1.1630  -1.9232  -0.2514   0.2328   0.00    0.0
2016/01/01 00:21:40.000   2580909.0102  -6196579.3813    713174.4045   6   9   1.8362   3.3228   1.1636  -1.9284  -0.2709   0.2374   0.00    0.0
2016/01/01 00:21:50.000   2574296.2511  -6189890.3235    789548.7383   6   9   1.8390   3.3218   1.1645  -1.9340  -0.2876   0.2414   0.00    0.0
2016/01/01 00:22:00.000   2567361.1789  -6182391.1799    865820.3483   6   9   1.8421   3.3215   1.1655  -1.9398  -0.3021   0.2450   0.00    0.0
2016/01/01 00:22:10.000   2560106.0429  -6174083.1460    941979.2822   6   9   1.8453   3.3219   1.1668  -1.9459  -0.3149   0.2480   0.00    0.0
2016/01/01 00:22:20.000   2552532.5271  -6164965.9726   1018015.4303   6   9   1.8487   3.3230   1.1682  -1.9523  -0.3262   0.2506   0.00    0.0
2016/01/01 00:22:30.000   2544642.9544  -6155040.8117   1093919.1716   6   9   1.8523   3.3247   1.1698  -1.9589  -0.3362   0.2527   0.00    0.0
2016/01/01 00:22:40.000   2536439.2806  -6144307.9394   1169680.5044   6   9   1.8561   3.3269   1.1716  -1.9657  -0.3452   0.2543   0.00    0.0
2016/01/01 00:22:50.000   2527924.2451  -6132769.1558   1245289.6072   6   9   1.8601   3.3296   1.1735  -1.9726  -0.3531   0.2554   0.00    0.0
2016/01/01 00:23:00.000   2519099.6167  -6120424.3723   1320736.5129   6   9   1.8641   3.3328   1.1756  -1.9798  -0.3601   0.2559   0.00    0.0
2016/01/01 00:23:10.000   2509968.0736  -6107275.5692   1396011.5178   6   9   1.8684   3.3364   1.1778  -1.9871  -0.3663   0.2558   0.00    0.0
2016/01/01 00:23:20.000   2500531.5411  -6093323.4526   1471104.8081   6   9   1.8727   3.3404   1.1801  -1.9946  -0.3716   0.2551   0.00    0.0
2016/01/01 00:23:30.000   2490792.5587  -6078569.6796   1546006.6267   6   9   1.8772   3.3447   1.1825  -2.0021  -0.3760   0.2536   0.00    0.0
2016/01/01 00:23:40.000   2480753.8232  -6063015.4504   1620707.0922   6   9   1.8817   3.3494   1.1851  -2.0097  -0.3796   0.2513   0.00    0.0
2016/01/01 00:23:50.000   2470417.5243  -6046662.4079   1695196.4200   6   9   1.8864   3.3544   1.1877  -2.0174  -0.3823   0.2482   0.00    0.0
2016/01/01 00:24:00.000   2459786.2856  -6029512.5202   1769465.0505   6   9   1.8911   3.3597   1.1904  -2.0251  -0.3841   0.2440   0.00    0.0
2016/01/01 00:24:10.000   2448862.7010  -6011567.1150   1843503.2276   6   9   1.8959   3.3652   1.1932  -2.0329  -0.3849   0.2387   0.00    0.0
2016/01/01 00:24:20.000   2437649.1030  -5992828.4046   1917301.2294   6   9   1.9007   3.3710   1.1961  -2.0407  -0.3848   0.2322   0.00    0.0
2016/01/01 00:24:30.000   2426148.1117  -5973298.1492   1990849.5742   6   9   1.9056   3.3769   1.1990  -2.0484  -0.3836   0.2242   0.00    0.0
2016/01/01 00:24:40.000   2414362.6951  -5952978.7337   2064138.8429   6   8   2.1576   3.8328   1.4474  -2.4564  -1.2641   0.9243   0.00    0.0
2016/01/01 00:24:50.000   2402295.0175  -5931871.8025   2137158.9550   6   8   2.1593   3.8352   1.4484  -2.4594  -1.2590   0.9177   0.00    0.0
2016/01/01 00:25:00.000   2389947.8242  -5909979.6352   2209900.7378   6   8   2.1612   3.8381   1.4498  -2.4626  -1.2542   0.9111   0.00    0.0
2016/01/01 00:25:10.000   2377324.3179  -5887305.3745   2282354.8237   6   9   2.1583   3.8324   1.4467  -2.4583  -1.2369   0.8947   0.00    0.0
2016/01/01 00:25:20.000   2364426.9753  -5863850.8715   2354511.4394   6   8   2.1656   3.8456   1.4536  -2.4701  -1.2453   0.8980   0.00    0.0
2016/01/01 00:25:30.000   2351258.5013  -5839618.9364   2426361.6293   6   8   2.1682   3.8501   1.4559  -2.4743  -1.2413   0.8914   0.00    0.0
2016/01/01 00:25:40.000   2337821.7156  -5814612.3383   2497895.5682   6   8   2.1710   3.8552   1.4586  -2.4788  -1.2375   0.8849   0.00    0.0
2016/01/01 00:25:50.000   2324119.6495  -5788833.7506   2569104.2526   6   8   2.1740   3.8607   1.4615  -2.4836  -1.2338   0.8784   0.00    0.0
2016/01/01 00:26:00.000   2310155.3201  -5762286.5040   2639978.4774   6   8   2.1772   3.8668   1.4647  -2.4886  -1.2303   0.8718   0.00    0.0
2016/01/01 00:26:10.000   2295931.5755  -5734974.1382   2710508.7604   6   9   1.8931   3.3515   1.4680  -2.0294  -1.2418   0.8768   0.00    0.0
2016/01/01 00:26:20.000   2281451.1166  -5706897.9036   2780685.6480   6   9   1.7292   3.1404   1.6668  -1.7762  -1.4880   0.9774   0.00    0.0
2016/01/01 00:26:30.000   2266717.0614  -5678063.3390   2850501.2999   6   9   1.6617   3.0224   1.6732  -1.6563  -1.4877   0.9709   0.00    0.0
2016/01/01 00:26:40.000   2251732.7386  -5648472.7179   2919945.5632   6   8   1.6281   2.9826   1.7142  -1.6011  -1.5301   0.9828   0.00    0.0
2016/01/01 00:26:50.000   2236500.3881  -5618128.7787   2989008.6938   6  10   1.6019   2.7042   1.6856  -1.5322  -1.4806   0.9634   0.00    0.0
2016/01/01 00:27:00.000   2221024.0898  -5587036.8096   3057683.7116   6   9   1.5864   2.5512   1.7123  -1.5146  -1.4938   0.9707   0.00    0.0
2016/01/01 00:27:10.000   2205306.0473  -5555198.7521   3125959.9321   6   9   1.5735   2.4823   1.7122  -1.4955  -1.4877   0.9663   0.00    0.0
2016/01/01 00:27:20.000   2189349.8023  -5522619.0483   3193828.9384   6   9   1.5634   2.4417   1.7124  -1.4804  -1.4841   0.9622   0.00    0.0
2016/01/01 00:27:30.000   2173158.3009  -5489301.7029   3261281.9190   6   9   1.5553   2.4140   1.7129  -1.4681  -1.4816   0.9583   0.00    0.0
2016/01/01 00:27:40.000   2156735.1275  -5455250.7290   3328310.0904   6   9   1.5485   2.3935   1.7138  -1.4580  -1.4798   0.9545   0.00    0.0
2016/01/01 00:27:50.000   2140082.9608  -5420469.4146   3394904.3658   6   9   1.5428   2.3776   1.7149  -1.4494  -1.4785   0.9509   0.00    0.0
2016/01/01 00:28:00.000   2123205.2541  -5384962.9910   3461056.7424   6   9   1.5379   2.3648   1.7163  -1.4421  -1.4776   0.9473   0.00    0.0
2016/01/01 00:28:10.000   2106105.4716  -5348735.3661   3526758.2563   6   9   1.5337   2.3544   1.7181  -1.4358  -1.4771   0.9439   0.00    0.0
2016/01/01 00:28:20.000   2088786.4193  -5311790.7117   3592000.3266   6   9   1.5300   2.3457   1.7201  -1.4303  -1.4768   0.9405   0.00    0.0
2016/01/01 00:28:30.000   2071251.6842  -5274133.3893   3656774.3982   6   9   1.5268   2.3385   1.7225  -1.4254  -1.4768   0.9372   0.00    0.0
2016/01/01 00:28:40.000   2053504.4672  -5235768.4882   3721072.5529   6   9   1.5241   2.3324   1.7251  -1.4212  -1.4770   0.9340   0.00    0.0
2016/01/01 00:28:50.000   2035548.1614  -5196700.3637   3784885.8653   6   9   1.5217   2.3273   1.7281  -1.4175  -1.4775   0.9307   0.00    0.0
2016/01/01 00:29:00.000   2017386.1117  -5156933.5825   3848206.0283   6   9   1.5196   2.3230   1.7314  -1.4143  -1.4782   0.9276   0.00    0.0
2016/01/01 00:29:10.000   1999021.6188  -5116473.0679   3911025.1915   6   9   1.5179   2.3194   1.7349  -1.4114  -1.4791   0.9244   0.00    0.0
2016/01/01 00:29:20.000   1980458.1727  -5075324.1286   3973334.7725   6   9   1.5164   2.3165   1.7388  -1.4089  -1.4803   0.9213   0.00    0.0
2016/01/01 00:29:30.000   1961698.9545  -5033491.5044   4035127.2614   6   9   1.5151   2.3142   1.7429  -1.4067  -1.4816   0.9182   0.00    0.0
2016/01/01 00:29:40.000   1942747.5809  -4990980.4275   4096394.0288   6   9   1.5141   2.3124   1.7473  -1.4048  -1.4831   0.9151   0.00    0.0
2016/01/01 00:29:50.000   1923607.4817  -4947796.0431   4157127.3035   6   9   1.5134   2.3111   1.7519  -1.4032  -1.4847   0.9121   0.00    0.0
2016/01/01 00:30:00.000   1904281.9367  -4903943.7547   4217319.1562   6   9   1.5128   2.3102   1.7567  -1.4018  -1.4865   0.9090   0.00    0.0
2016/01/01 00:30:10.000   1884774.7293  -4859428.8690   4276961.8345   6   9   1.5125   2.3097   1.7616  -1.4007  -1.4884   0.9060   0.00    0.0
2016/01/01 00:30:20.000   1865089.1919  -4814257.2210   4336048.0247   6   8   1.5133   2.3408   2.0069  -1.4071  -1.6076   0.9310   0.00    0.0
2016/01/01 00:30:30.000   1845228.7235  -4768433.8509   4394568.7861   6   8   1.5132   2.3404   2.0086  -1.4060  -1.6078   0.9263   0.00    0.0
2016/01/01 00:30:40.000   1825197.0905  -4721964.7667   4452517.4627   6   8   1.5133   2.3404   2.0107  -1.4050  -1.6082   0.9217   0.00    0.0
2016/01/01 00:30:50.000   1804997.5822  -4674855.8744   4509886.3318   6   8   1.5136   2.3407   2.0130  -1.4043  -1.6088   0.9172   0.00    0.0
2016/01/01 00:31:00.000   1784633.7960  -4627112.7159   4566668.1147   6   8   1.5140   2.3413   2.0157  -1.4038  -1.6096   0.9128   0.00    0.0
2016/01/01 00:31:10.000   1764109.3809  -4578741.5606   4622855.2204   6   8   1.5146   2.3422   2.0186  -1.4035  -1.6106   0.9085   0.00    0.0
2016/01/01 00:31:20.000   1743427.7575  -4529748.1577   4678440.0121   6   8   1.5154   2.3435   2.0217  -1.4034  -1.6117   0.9044   0.00    0.0
2016/01/01 00:31:30.000   1722592.7764  -4480139.0429   4733416.2867   6   8   1.5163   2.3450   2.0251  -1.4035  -1.6130   0.9004   0.00    0.0
2016/01/01 00:31:40.000   1701607.6307  -4429919.8071   4787775.6819   6   8   1.5173   2.3467   2.0286  -1.4038  -1.6144   0.8965   0.00    0.0
2016/01/01 00:31:50.000   1680476.3368  -4379097.2494   4841511.7362   6   8   1.5185   2.3487   2.0323  -1.4043  -1.6159   0.8929   0.00    0.0
2016/01/01 00:32:00.000   1659202.3832  -4327677.5572   4894617.2914   6   8   1.5198   2.3509   2.0361  -1.4050  -1.6174   0.8895   0.00    0.0
2016/01/01 00:32:10.000   1637789.1608  -4275667.2346   4947086.0261   6   8   1.6042   2.4946   2.8191  -1.2473  -2.0570  -0.4525   0.00    0.0
2016/01/01 00:32:20.000   1616240.9848  -4223071.8701   4998908.5871   6   8   1.6067   2.5012   2.8413  -1.2450  -2.0697  -0.4799   0.00    0.0
2016/01/01 00:32:30.000   1594560.3679  -4169900.0173   5050082.7101   6   7   1.6259   2.5367   3.0008  -1.2070  -2.1631  -0.6807   0.00    0.0
2016/01/01 00:32:40.000   1572751.8201  -4116157.0582   5100598.7168   6   7   1.6253   2.5387   2.9993  -1.2118  -2.1620  -0.6708   0.00    0.0
2016/01/01 00:32:50.000   1550818.7376  -4061850.4020   5150451.2467   6   8   1.6140   2.5214   2.9053  -1.2410  -2.1064  -0.5451   0.00    0.0
2016/01/01 00:33:00.000   1528764.8566  -4006986.3031   5199632.3979   6   7   1.6248   2.5435   2.9976  -1.2220  -2.1605  -0.6508   0.00    0.0
2016/01/01 00:33:10.000   1506593.6706  -3951571.8625   5248136.8723   6   7   1.6247   2.5462   2.9976  -1.2273  -2.1601  -0.6407   0.00    0.0
2016/01/01 00:33:20.000   1484309.2126  -3895614.6445   5295958.8062   6   7   1.6249   2.5492   2.9980  -1.2327  -2.1601  -0.6305   0.00    0.0
2016/01/01 00:33:30.000   1461914.7163  -3839121.2269   5343091.1300   6   8   1.6223   2.5470   2.9728  -1.2448  -2.1449  -0.5886   0.00    0.0
2016/01/01 00:33:40.000   1439414.2034  -3782098.6404   5389527.7114   6   7   1.6257   2.5560   3.0003  -1.2440  -2.1607  -0.6098   0.00    0.0
2016/01/01 00:33:50.000   1416811.1570  -3724554.4917   5435263.1722   6   7   1.6263   2.5597   3.0022  -1.2498  -2.1614  -0.5992   0.00    0.0
2016/01/01 00:34:00.000   1394109.1590  -3666495.8234   5480291.0762   6   7   1.6271   2.5637   3.0044  -1.2557  -2.1624  -0.5885   0.00    0.0
2016/01/01 00:34:10.000   1371312.1501  -3607929.8259   5524605.4386   6   7   1.6281   2.5679   3.0071  -1.2618  -2.1635  -0.5775   0.00    0.0
2016/01/01 00:34:20.000   1348423.6033  -3548864.1985   5568200.9915   6   7   1.6293   2.5723   3.0102  -1.2681  -2.1650  -0.5663   0.00    0.0
2016/01/01 00:34:30.000   1325447.1906  -3489306.3353   5611071.2929   6   8   1.5224   2.4099   2.9967  -1.0446  -2.0985  -0.7026   0.00    0.0
2016/01/01 00:34:40.000   1302387.0577  -3429264.4131   5653211.9606   6   8   1.4017   2.2279   2.9824  -0.7417  -2.0263  -0.8227   0.00    0.0
2016/01/01 00:34:50.000   1279246.2850  -3368745.3424   5694616.5742   6   8   1.3568   2.1640   2.9803  -0.6066  -2.0024  -0.8556   0.00    0.0
2016/01/01 00:35:00.000   1256029.0151  -3307757.2407   5735280.2755   6   8   1.3322   2.1316   2.9815  -0.5253  -1.9911  -0.8689   0.00    0.0
2016/01/01 00:35:10.000   1232738.6936  -3246307.7947   5775197.7516   6   8   1.3161   2.1123   2.9839  -0.4692  -1.9849  -0.8746   0.00    0.0
2016/01/01 00:35:20.000   1209379.0101  -3184404.8190   5814363.5016   6   8   1.3042   2.0998   2.9869  -0.4273  -1.9814  -0.8766   0.00    0.0
2016/01/01 00:35:30.000   1185953.8244  -3122056.4489   5852772.9939   6   8   1.2949   2.0913   2.9903  -0.3945  -1.9794  -0.8764   0.00    0.0
2016/01/01 00:35:40.000   1162466.6788  -3059270.3015   5890420.6671   6   8   1.2873   2.0854   2.9938  -0.3678  -1.9784  -0.8748   0.00    0.0
2016/01/01 00:35:50.000   1138921.1124  -2996054.6161   5927302.1521   6   9   1.2752   1.9344   2.9632  -0.1650  -1.8887  -0.9026   0.00    0.0
2016/01/01 00:36:00.000   1115321.0051  -2932417.5254   5963412.6246   6   9   1.2656   1.7645   2.9279   0.2488  -1.7870  -0.9246   0.00    0.0
2016/01/01 00:36:10.000   1091669.9146  -2868367.1939   5998747.2204   6  10   1.2472   1.6181   2.8454   0.0860  -1.6520  -0.8668   0.00    0.0
2016/01/01 00:36:20.000   1067971.5796  -2803911.4786   6033301.3057   6  10   1.2166   1.4855   2.7371  -0.3243  -1.5007  -0.7495   0.00    0.0
2016/01/01 00:36:30.000   1044229.6220  -2739059.0467   6067070.5249   6  10   1.2029   1.4274   2.6989  -0.3676  -1.4411  -0.7017   0.00    0.0
2016/01/01 00:36:40.000   1020447.5293  -2673818.0821   6100050.3368   6  10   1.1938   1.3923   2.6796  -0.3831  -1.4078  -0.6724   0.00    0.0
2016/01/01 00:36:50.000    996629.0726  -2608197.0490   6132236.9330   6  10   1.1869   1.3682   2.6693  -0.3898  -1.3863  -0.6507   0.00    0.0
2016/01/01 00:37:00.000    972777.9577  -2542204.3244   6163625.6002   6  10   1.1812   1.3502   2.6700  -0.3930  -1.3721  -0.6329   0.00    0.0
2016/01/01 00:37:10.000    948897.7105  -2475848.3682   6194212.1566   6   9   1.1768   1.3499   3.6583  -0.3859  -1.5284  -0.6849   0.00    0.0
2016/01/01 00:37:20.000    924991.9787  -2409137.8052   6223993.5561   6   9   1.1723   1.3382   3.6471  -0.3881  -1.5159  -0.6601   0.00    0.0
2016/01/01 00:37:30.000    901064.2117  -2342080.9670   6252964.8295   6   9   1.1683   1.3284   3.6379  -0.3900  -1.5056  -0.6358   0.00    0.0
2016/01/01 00:37:40.000    877118.1865  -2274686.7104   6281122.9188   6   9   1.1647   1.3201   3.6303  -0.3918  -1.4970  -0.6116   0.00    0.0
2016/01/01 00:37:50.000    853157.5327  -2206963.9231   6308463.9791   6   9   1.1614   1.3129   3.6239  -0.3936  -1.4897  -0.5873   0.00    0.0
2016/01/01 00:38:00.000    829185.5382  -2138920.9475   6334985.1302   6   9   1.1585   1.3067   3.6186  -0.3955  -1.4834  -0.5625   0.00    0.0
2016/01/01 00:38:10.000    805206.1551  -2070566.8801   6360682.1584   6   9   1.1558   1.3013   3.6142  -0.3975  -1.4779  -0.5371   0.00    0.0
2016/01/01 00:38:20.000    781222.6191  -2001910.3088   6385552.4059   6   9   1.1533   1.2965   3.6106  -0.3996  -1.4731  -0.5108   0.00    0.0
2016/01/01 00:38:30.000    757238.4927  -1932960.2972   6409592.0819   6   9   1.1511   1.2923   3.6078  -0.4018  -1.4688  -0.4834   0.00    0.0
2016/01/01 00:38:40.000    733257.4555  -1863725.6080   6432798.0980   6   9   1.1491   1.2886   3.6056  -0.4042  -1.4651  -0.4547   0.00    0.0
2016/01/01 00:38:50.000    709282.8792  -1794215.3068   6455167.6787   6   9   1.1472   1.2854   3.6041  -0.4067  -1.4618  -0.4242   0.00    0.0
2016/01/01 00:39:00.000    685318.3299  -1724438.2257   6476697.6568   6   9   1.1456   1.2825   3.6032  -0.4093  -1.4588  -0.3915   0.00    0.0
2016/01/01 00:39:10.000    661367.1830  -1654403.6164   6497385.8563   6   9   1.1441   1.2801   3.6028  -0.4121  -1.4562  -0.3561   0.00    0.0
2016/01/01 00:39:20.000    637432.9100  -1584120.3049   6517228.4138   6  10   1.1125   1.2492   3.5786  -0.3190  -1.4146  -0.4582   0.00    0.0
2016/01/01 00:39:30.000    613519.2026  -1513597.5568   6536223.3619   6  10   1.0767   1.2178   3.5513  -0.1731  -1.3693  -0.5535   0.00    0.0
2016/01/01 00:39:40.000    589629.2547  -1442844.5886   6554369.1701   6  10   1.0629   1.2058   3.5413  -0.0811  -1.3511  -0.5713   0.00    0.0
2016/01/01 00:39:50.000    565766.5489  -1371870.6468   6571662.2406   6  10   1.0549   1.1991   3.5360   0.0684  -1.3401  -0.5722   0.00    0.0
2016/01/01 00:40:00.000    541934.5411  -1300684.8131   6588101.1301   6  10   1.0492   1.1945   3.5327   0.1051  -1.3320  -0.5665   0.00    0.0
2016/01/01 00:40:10.000    518136.4419  -1229296.1528   6603683.4505   6  10   1.0448   1.1912   3.5305   0.1221  -1.3255  -0.5576   0.00    0.0
2016/01/01 00:40:20.000    494375.9117  -1157714.3193   6618406.9616   6  10   1.0412   1.1887   3.5291   0.1318  -1.3200  -0.5468   0.00    0.0
2016/01/01 00:40:30.000    470656.0604  -1085948.3305   6632270.2887   6  10   1.0381   1.1867   3.5281   0.1374  -1.3151  -0.5347   0.00    0.0
2016/01/01 00:40:40.000    446980.0700  -1014007.4722   6645271.5692   6  10   1.0354   1.1852   3.5276   0.1406  -1.3107  -0.5218   0.00    0.0
2016/01/01 00:40:50.000    423351.5608   -941901.2783   6657408.5171   6  10   1.0330   1.1840   3.5273   0.1422  -1.3067  -0.5082   0.00    0.0
2016/01/01 00:41:00.000    399773.5868   -869638.9766   6668680.2597   6  10   1.0308   1.1831   3.5272   0.1425  -1.3030  -0.4941   0.00    0.0
2016/01/01 00:41:10.000    376249.6053   -797229.9037   6679084.7024   6  10   1.0288   1.1825   3.5272   0.1419  -1.2995  -0.4795   0.00    0.0
2016/01/01 00:41:20.000    352782.6314   -724683.7680   6688621.5573   6  10   1.0269   1.1821   3.5273   0.1405  -1.2963  -0.4646   0.00    0.0
2016/01/01 00:41:30.000    329376.1358   -652009.9296   6697288.8082   6  10   1.0253   1.1820   3.5274   0.1384  -1.2934  -0.4493   0.00    0.0
2016/01/01 00:41:40.000    306033.2277   -579217.8307   6705085.5841   6  10   1.0238   1.1820   3.5274   0.1357  -1.2906  -0.4336   0.00    0.0
2016/01/01 00:41:50.000    282757.0589   -506316.8944   6712010.6059   6  10   1.0224   1.1822   3.5275   0.1324  -1.2880  -0.4176   0.00    0.0
2016/01/01 00:42:00.000    259550.8371   -433316.7748   6718063.0189   6  10   1.0211   1.1825   3.5277   0.1286  -1.2855  -0.4012   0.00    0.0
2016/01/01 00:42:10.000    236417.7262   -360226.9503   6723242.5922   6  10   1.0199   1.1831   3.5281   0.1243  -1.2832  -0.3840   0.00    0.0
2016/01/01 00:42:20.000    213360.5994   -287056.9570   6727547.8144   6  10   1.0189   1.1838   3.5296   0.1196  -1.2809  -0.3653   0.00    0.0
2016/01/01 00:42:30.000    190382.8636   -213816.3027   6730978.9509   6  10   1.0181   1.1846   3.5342   0.1148  -1.2783  -0.3427   0.00    0.0
2016/01/01 00:42:40.000    167487.3631   -140514.6532   6733535.0491   6  10   1.0179   1.1858   3.5526   0.1118  -1.2738  -0.3033   0.00    0.0
2016/01/01 00:42:50.000    144677.1464    -67161.4391   6735216.1250   6  10   1.0222   1.1881   3.7006   0.1288  -1.2498   0.1612   0.00    0.0
2016/01/01 00:43:10.000     99324.8440     79661.0427   6735951.9190   6   9   1.0523   1.1992   4.5161   0.2197  -1.0949   0.8409   0.00    0.0
2016/01/01 00:43:20.000     76788.6525    153111.0431   6735006.4551   6   9   1.0520   1.2008   4.5215   0.2171  -1.0908   0.8502   0.00    0.0
2016/01/01 00:43:30.000     54349.7036    226574.1180   6733185.3842   6   9   1.0517   1.2026   4.5268   0.2144  -1.0870   0.8594   0.00    0.0
2016/01/01 00:43:40.000     32010.8894    300040.5267   6730488.8447   6   9   1.0516   1.2045   4.5319   0.2115  -1.0833   0.8683   0.00    0.0
2016/01/01 00:44:00.000    -12354.9623    446944.9105   6722472.7078   6   9   1.0518   1.2090   4.5421   0.2045  -1.0775   0.8860   0.00    0.0
2016/01/01 00:44:10.000    -34376.1986    520363.5216   6717154.0239   6   9   1.0519   1.2112   4.5463   0.2010  -1.0747   0.8943   0.00    0.0
2016/01/01 00:44:20.000    -56285.9013    593747.1557   6710962.3365   6   9   1.0520   1.2134   4.5502   0.1971  -1.0723   0.9024   0.00    0.0
2016/01/01 00:44:30.000    -78081.4796    667085.8742   6703898.5594   6   9   1.0523   1.2158   4.5537   0.1930  -1.0703   0.9103   0.00    0.0
2016/01/01 00:44:40.000    -99759.8641    740370.2338   6695963.6282   6   9   1.0642   1.3499   5.7006   0.3557   0.9218   1.1740   0.00    0.0
2016/01/01 00:44:50.000   -121318.6848    813590.4711   6687156.7519   6   8   1.0660   1.3681   5.8155   0.3686   1.0438   1.2053   0.00    0.0
2016/01/01 00:45:00.000   -142755.0372    886737.0019   6677480.7256   6   9   1.0652   1.3577   5.6994   0.3525   0.9348   1.1855   0.00    0.0
2016/01/01 00:45:10.000   -164066.3025    959800.6114   6666939.7348   6   8   1.0665   1.3700   5.7622   0.3589   1.0064   1.2049   0.00    0.0
2016/01/01 00:45:20.000   -185249.9915   1032771.2766   6655530.3924   6   8   1.0669   1.3712   5.7364   0.3538   0.9878   1.2045   0.00    0.0
2016/01/01 00:45:30.000   -206303.3309   1105639.5204   6643257.4061   6   9   1.0669   1.3684   5.6782   0.3441   0.9345   1.1970   0.00    0.0
2016/01/01 00:45:40.000   -227223.9001   1178395.5345   6630120.2093   6   8   1.0678   1.3743   5.6863   0.3431   0.9509   1.2037   0.00    0.0
2016/01/01 00:45:50.000   -248009.1438   1251030.2610   6616121.6928   6   8   1.0684   1.3761   5.6620   0.3375   0.9325   1.2032   0.00    0.0
2016/01/01 00:46:00.000   -268656.6245   1323533.4521   6601263.2758   6   8   1.0691   1.3781   5.6382   0.3317   0.9142   1.2026   0.00    0.0
2016/01/01 00:46:10.000   -289163.7425   1395895.9144   6585547.0892   6   8   1.0698   1.3803   5.6150   0.3256   0.8959   1.2020   0.00    0.0
2016/01/01 00:46:20.000   -309528.1096   1468108.0185   6568975.3133   6   8   1.0706   1.3827   5.5922   0.3194   0.8777   1.2013   0.00    0.0
2016/01/01 00:46:30.000   -329747.3260   1540160.1645   6551549.6209   6   8   1.0715   1.3853   5.5699   0.3128   0.8596   1.2006   0.00    0.0
2016/01/01 00:46:40.000   -349819.0224   1612043.1936   6533272.1787   6   9   1.0682   1.3253   4.9858   0.3643   1.3088   1.0997   0.00    0.0
2016/01/01 00:46:50.000   -369740.8418   1683747.1550   6514146.1214   6   9   1.0677   1.3016   4.7464   0.3791   1.4382   1.0603   0.00    0.0
2016/01/01 00:47:00.000   -389510.5109   1755262.8241   6494173.5737   6   9   1.0683   1.2934   4.6601   0.3811   1.4751   1.0472   0.00    0.0
2016/01/01 00:47:10.000   -409125.7382   1826580.5883   6473356.5306   6   9   1.0692   1.2893   4.6140   0.3798   1.4905   1.0408   0.00    0.0
2016/01/01 00:47:20.000   -428584.3379   1897691.1008   6451698.3965   6   9   1.0702   1.2869   4.5844   0.3772   1.4975   1.0372   0.00    0.0
2016/01/01 00:47:30.000   -447883.9884   1968584.9921   6429201.7746   6   9   1.0714   1.2855   4.5635   0.3738   1.5005   1.0349   0.00    0.0
2016/01/01 00:47:40.000   -467022.7608   2039252.8914   6405869.4938   6   9   1.0727   1.2846   4.5477   0.3699   1.5011   1.0334   0.00    0.0
2016/01/01 00:47:50.000   -485998.1711   2109685.2236   6381704.6291   6   9   1.0741   1.2842   4.5353   0.3656   1.5003   1.0324   0.00    0.0
2016/01/01 00:48:00.000   -504808.4841   2179872.9535   6356710.6928   6   9   1.0755   1.2842   4.5252   0.3611   1.4986   1.0316   0.00    0.0
2016/01/01 00:48:10.000   -523451.4756   2249806.4720   6330890.1715   6   9   1.0771   1.2844   4.5170   0.3563   1.4962   1.0312   0.00    0.0
2016/01/01 00:48:20.000   -541925.0103   2319476.7747   6304247.3602   6   9   1.0787   1.2848   4.5101   0.3512   1.4934   1.0308   0.00    0.0
2016/01/01 00:48:30.000   -560227.3569   2388874.5785   6276784.8082   6   9   1.0803   1.2855   4.5044   0.3460   1.4902   1.0307   0.00    0.0
2016/01/01 00:48:40.000   -578356.1986   2457990.5409   6248506.7765   6  10   1.0820   1.2862   4.1565   0.3404   1.4804   1.0184   0.00    0.0
2016/01/01 00:48:50.000   -596309.9687   2526815.6162   6219416.7164   6  10   1.0836   1.2869   3.7264   0.3344   1.4637   1.0055   0.00    0.0
2016/01/01 00:49:00.000   -614086.5431   2595340.6357   6189517.8233   6  10   1.0854   1.2879   3.5630   0.3287   1.4566   1.0010   0.00    0.0
2016/01/01 00:49:10.000   -631684.0639   2663556.6436   6158815.1467   6  10   1.0873   1.2891   3.4725   0.3229   1.4517   0.9986   0.00    0.0
2016/01/01 00:49:20.000   -649100.9789   2731454.2345   6127311.6190   6  10   1.0892   1.2903   3.4124   0.3171   1.4477   0.9973   0.00    0.0
2016/01/01 00:49:30.000   -666335.1623   2799024.6458   6095012.1841   6  10   1.0911   1.2916   3.3681   0.3113   1.4442   0.9964   0.00    0.0
2016/01/01 00:49:40.000   -683385.1431   2866258.7196   6061920.2748   6  10   1.0931   1.2929   3.3331   0.3056   1.4408   0.9959   0.00    0.0
2016/01/01 00:49:50.000   -700249.1018   2933147.7889   6028040.5748   6   9   1.1102   1.4980   3.3579  -0.2188   1.5869   0.9391   0.00    0.0
2016/01/01 00:50:00.000   -716925.4254   2999682.5150   5993377.0000   6   9   1.1124   1.4976   3.3316  -0.2266   1.5809   0.9399   0.00    0.0
2016/01/01 00:50:10.000   -733412.4489   3065854.3186   5957934.6394   6   9   1.1146   1.4973   3.3083  -0.2338   1.5751   0.9407   0.00    0.0
2016/01/01 00:50:20.000   -749708.6382   3131654.3661   5921717.9506   6   9   1.1167   1.4971   3.2874  -0.2404   1.5695   0.9418   0.00    0.0
2016/01/01 00:50:30.000   -765812.2741   3197073.6676   5884731.4430   6   9   1.1189   1.4970   3.2683  -0.2465   1.5640   0.9430   0.00    0.0
2016/01/01 00:50:40.000   -781722.0799   3262103.7312   5846979.6937   6   9   1.1211   1.4969   3.2506  -0.2521   1.5586   0.9444   0.00    0.0
2016/01/01 00:50:50.000   -797436.2332   3326735.6205   5808468.2826   6   9   1.2417   1.7593   3.3332  -0.7453   1.7770   0.6840   0.00    0.0
2016/01/01 00:51:00.000   -812953.6365   3390961.0342   5769201.8241   6   9   1.1867   1.6361   3.2723  -0.5631   1.6689   0.8222   0.00    0.0
2016/01/01 00:51:10.000   -828272.7775   3454771.1378   5729185.3156   6   9   1.2471   1.7633   3.3021  -0.7530   1.7671   0.6907   0.00    0.0
2016/01/01 00:51:20.000   -843392.1953   3518157.6853   5688424.4061   6   9   1.2495   1.7651   3.2877  -0.7561   1.7620   0.6946   0.00    0.0
2016/01/01 00:51:30.000   -858310.5148   3581111.8215   5646923.9343   6   9   1.1939   1.6398   3.2296  -0.5729   1.6534   0.8310   0.00    0.0
2016/01/01 00:51:40.000   -873026.7254   3643625.4934   5604689.2344   6   9   1.1773   1.5986   3.2027  -0.5027   1.6143   0.8716   0.00    0.0
2016/01/01 00:51:50.000   -887539.2090   3705690.1053   5561726.4163   6   8   1.2564   1.7698   3.2480  -0.7633   1.7465   0.7085   0.00    0.0
2016/01/01 00:52:40.000   -957008.0816   4008987.9332   5336180.5680   6   7   1.2713   2.3518   3.3261  -0.8733   2.0886   0.6644   0.00    0.0
2016/01/01 00:52:50.000   -970275.4062   4068185.7964   5288966.3616   6   7   1.2736   2.3471   3.3143  -0.8747   2.0803   0.6705   0.00    0.0
2016/01/01 00:53:00.000   -983331.4393   4126877.7959   5241064.9161   6   8   1.2749   2.2407   3.2784  -0.8564   2.0049   0.6912   0.00    0.0
2016/01/01 00:53:10.000   -996175.4201   4185055.6071   5192481.4948   6   8   1.2754   2.0297   3.2205  -0.8182   1.8623   0.7246   0.00    0.0
2016/01/01 00:53:20.000  -1008806.3841   4242711.8787   5143223.3769   6   8   1.2772   1.9551   3.1950  -0.8061   1.8093   0.7391   0.00    0.0
2016/01/01 00:53:30.000  -1021223.4334   4299838.4757   5093296.3367   6   8   1.2794   1.9174   3.1780  -0.8008   1.7800   0.7489   0.00    0.0
2016/01/01 00:53:40.000  -1033425.6000   4356427.8877   5042707.0989   6   8   1.2818   1.8948   3.1647  -0.7983   1.7604   0.7569   0.00    0.0
2016/01/01 00:53:50.000  -1045412.3826   4412472.5166   4991462.4326   6   8   1.2843   1.8800   3.1534  -0.7973   1.7457   0.7640   0.00    0.0
2016/01/01 00:54:00.000  -1057182.5846   4467964.9004   4939568.8138   6   8   1.2870   1.8695   3.1433  -0.7971   1.7338   0.7705   0.00    0.0
2016/01/01 00:54:10.000  -1068735.8604   4522897.3959   4887032.9054   6   8   1.2898   1.8616   3.1341  -0.7975   1.7236   0.7768   0.00    0.0
2016/01/01 00:54:20.000  -1080071.5830   4577262.7341   4833861.5620   6   8   1.2927   1.8555   3.1255  -0.7983   1.7145   0.7829   0.00    0.0
2016/01/01 00:54:30.000  -1091188.7983   4631053.3561   4780061.9706   6   8   1.2957   1.8508   3.1176  -0.7993   1.7063   0.7888   0.00    0.0
2016/01/01 00:54:40.000  -1102087.2635   4684262.2363   4725640.9169   6   8   1.2988   1.8477   3.1103  -0.8007   1.6992   0.7945   0.00    0.0
2016/01/01 00:54:50.000  -1112766.3023   4736882.1550   4670605.2124   6   8   1.3021   1.8487   3.1041  -0.8030   1.6947   0.7998   0.00    0.0
2016/01/01 00:55:00.000  -1123225.1758   4788905.6155   4614962.5586   6   8   1.3057   1.8807   3.1043  -0.8115   1.7096   0.8015   0.00    0.0
2016/01/01 00:55:50.000  -1172205.7301   5039836.7581   4327894.4564   6   7   1.3298   2.3087   3.1720  -0.9179   1.9626   0.7709   0.00    0.0
2016/01/01 00:56:00.000  -1181336.4710   5088138.0439   4268762.2926   6   7   1.3338   2.3092   3.1669  -0.9213   1.9577   0.7764   0.00    0.0
2016/01/01 00:56:10.000  -1190244.6642   5135795.6942   4209075.2732   6   7   1.3380   2.3100   3.1621  -0.9249   1.9531   0.7819   0.00    0.0
2016/01/01 00:56:20.000  -1198930.1145   5182802.9226   4148840.9688   6   7   1.3422   2.3111   3.1576  -0.9286   1.9487   0.7874   0.00    0.0
2016/01/01 00:56:30.000  -1207392.4804   5229153.5826   4088068.0064   6   8   1.3199   2.2804   2.6715  -0.9858   1.7712   0.4268   0.00    0.0
2016/01/01 00:56:40.000  -1215632.0038   5274841.4120   4026762.6019   6   8   1.3054   2.2617   2.3023  -1.0235   1.6466  -0.3335   0.00    0.0
2016/01/01 00:56:50.000  -1223648.3518   5319859.7366   3964933.9231   6   8   1.3023   2.2581   2.1610  -1.0386   1.6033  -0.4628   0.00    0.0
2016/01/01 00:57:00.000  -1231441.7858   5364202.8029   3902589.4191   6   8   1.3023   2.2585   2.0840  -1.0482   1.5817  -0.5191   0.00    0.0
2016/01/01 00:57:10.000  -1239011.8451   5407864.5736   3839737.2813   6   8   1.3035   2.2608   2.0345  -1.0557   1.5692  -0.5529   0.00    0.0
2016/01/01 00:57:20.000  -1246358.8155   5450838.9246   3776386.2707   6   8   1.3053   2.2641   1.9994  -1.0622   1.5615  -0.5765   0.00    0.0
2016/01/01 00:57:30.000  -1253482.6719   5493119.7916   3712543.9629   6   8   1.3076   2.2682   1.9729  -1.0681   1.5567  -0.5946   0.00    0.0
2016/01/01 00:57:40.000  -1260383.6001   5534701.6388   3648218.8571   6   8   1.3101   2.2729   1.9522  -1.0737   1.5538  -0.6095   0.00    0.0
2016/01/01 00:57:50.000  -1267061.4555   5575578.5754   3583419.4347   6   8   1.3129   2.2781   1.9354  -1.0791   1.5524  -0.6221   0.00    0.0
2016/01/01 00:58:00.000  -1273517.0568   5615745.6450   3518154.2235   6   8   1.3159   2.2837   1.9215  -1.0845   1.5519  -0.6333   0.00    0.0
2016/01/01 00:58:10.000  -1279749.8355   5655196.6900   3452431.5987   6   8   1.3190   2.2898   1.9100  -1.0898   1.5524  -0.6434   0.00    0.0
2016/01/01 00:58:20.000  -1285760.5019   5693926.3006   3386259.6801   6   8   1.3222   2.2962   1.9003  -1.0951   1.5535  -0.6528   0.00    0.0
2016/01/01 00:58:30.000  -1291549.1502   5731929.4700   3319647.7587   6   8   1.3256   2.3031   1.8920  -1.1005   1.5553  -0.6615   0.00    0.0
2016/01/01 00:58:40.000  -1297116.1943   5769200.9706   3252604.1652   6   8   1.3290   2.3102   1.8851  -1.1058   1.5576  -0.6698   0.00    0.0
2016/01/01 00:58:50.000  -1302462.0912   5805735.5469   3185137.6337   6   8   1.3326   2.3177   1.8792  -1.1112   1.5604  -0.6777   0.00    0.0
2016/01/01 00:59:00.000  -1307586.8720   5841528.2618   3117257.0984   6   8   1.3362   2.3255   1.8743  -1.1167   1.5637  -0.6853   0.00    0.0
2016/01/01 00:59:10.000  -1312491.3780   5876573.8456   3048971.1034   6   8   1.3400   2.3336   1.8702  -1.1223   1.5673  -0.6927   0.00    0.0
2016/01/01 00:59:20.000  -1317175.8477   5910867.9031   2980288.6375   6   8   1.3438   2.3419   1.8669  -1.1279   1.5713  -0.7000   0.00    0.0
2016/01/01 00:59:30.000  -1321640.5495   5944405.3581   2911218.8425   6   8   1.3476   2.3505   1.8643  -1.1335   1.5757  -0.7071   0.00    0.0
2016/01/01 00:59:40.000  -1325886.5639   5977181.8654   2841770.3283   6   8   1.3516   2.3593   1.8623  -1.1393   1.5805  -0.7141   0.00    0.0
2016/01/01 00:59:50.000  -1329913.9730   6009192.5544   2771952.5856   6   8   1.3556   2.3683   1.8610  -1.1451   1.5855  -0.7210   0.00    0.0
2016/01/01 01:00:00.000  -1333723.7230   6040433.3123   2701774.3147   6   8   1.3596   2.3774   1.8601  -1.1510   1.5908  -0.7278   0.00    0.0
2016/01/01 01:00:10.000  -1337316.4422   6070899.8794   2631245.0108   6   8   1.3637   2.3867   1.8598  -1.1569   1.5965  -0.7346   0.00    0.0
2016/01/01 01:00:20.000  -1340692.5110   6100587.4884   2560373.5573   6   9   1.3640   2.3662   1.7849  -1.1793   1.5396  -0.7764   0.00    0.0
2016/01/01 01:00:30.000  -1343852.6857   6129492.2659   2489169.1669   6   9   1.3624   2.3238   1.6607  -1.2111   1.4374  -0.8338   0.00    0.0
2016/01/01 01:00:40.000  -1346797.9121   6157610.3834   2417641.2156   6   9   1.3647   2.3137   1.6162  -1.2258   1.4033  -0.8561   0.00    0.0
2016/01/01 01:00:50.000  -1349528.8364   6184937.7734   2345799.0096   6   9   1.3681   2.3119   1.5929  -1.2363   1.3874  -0.8701   0.00    0.0
2016/01/01 01:01:00.000  -1352046.1687   6211470.4708   2273651.8295   6   9   1.3719   2.3132   1.5786  -1.2451   1.3789  -0.8808   0.00    0.0
2016/01/01 01:01:10.000  -1354351.0221   6237205.1859   2201208.9659   6   9   1.6531   2.7200   1.5745  -1.6962   1.4415  -0.9557   0.00    0.0
2016/01/01 01:01:20.000  -1356444.1131   6262137.7605   2128480.1276   6   9   1.5270   2.5336   1.5646  -1.5015   1.4057  -0.9309   0.00    0.0
2016/01/01 01:01:30.000  -1358326.3040   6286265.0644   2055474.6129   6   9   1.4850   2.4717   1.5586  -1.4347   1.3936  -0.9273   0.00    0.0
2016/01/01 01:01:40.000  -1359998.6541   6309583.6271   1982201.8360   6   9   1.4655   2.4443   1.5544  -1.4030   1.3882  -0.9290   0.00    0.0
2016/01/01 01:01:50.000  -1361462.2629   6332090.3804   1908671.6689   6   9   1.4553   2.4385   1.5513  -1.3862   1.3856  -0.9327   0.00    0.0
2016/01/01 01:02:00.000  -1362717.6792   6353781.6392   1834893.2311   6   8   1.4499   2.7993   1.5493  -1.3853   1.3746  -0.9372   0.00    0.0
2016/01/01 01:02:10.000  -1363766.4615   6374654.6833   1760876.3800   6   8   1.4481   2.7908   1.5480  -1.3802   1.3754  -0.9432   0.00    0.0
2016/01/01 01:02:20.000  -1364609.4220   6394706.5633   1686630.7089   6   7   1.7597   3.5570   1.5553  -2.0276   1.4984  -1.0289   0.00    0.0
2016/01/01 01:02:50.000  -1365914.3879   6449906.2602   1462617.2847   6   7   1.7671   3.5605   1.5593  -2.0352   1.5139  -1.0493   0.00    0.0
2016/01/01 01:03:00.000  -1365945.2090   6466645.5047   1387552.9589   6   7   1.7697   3.5612   1.5600  -2.0379   1.5181  -1.0563   0.00    0.0
2016/01/01 01:03:10.000  -1365776.1998   6482550.4787   1312308.4498   6   7   1.7724   3.5622   1.5611  -2.0406   1.5226  -1.0632   0.00    0.0
2016/01/01 01:03:20.000  -1365408.2586   6497618.0595   1236893.3934   6   8   1.7738   3.5601   1.5624  -2.0407   1.5267  -1.0698   0.00    0.0
2016/01/01 01:03:30.000  -1364843.1612   6511847.8559   1161317.7447   6   7   1.7781   3.5647   1.5642  -2.0461   1.5322  -1.0772   0.00    0.0
2016/01/01 01:03:40.000  -1364081.5543   6525236.0187   1085591.1793   6   7   1.7810   3.5663   1.5662  -2.0489   1.5373  -1.0841   0.00    0.0
2016/01/01 01:03:50.000  -1363124.9790   6537780.6059   1009723.3881   6   7   1.7840   3.5681   1.5685  -2.0518   1.5425  -1.0911   0.00    0.0
2016/01/01 01:04:10.000  -1360633.1858   6560334.4156    857604.3294   6   7   1.7905   3.5727   1.5747  -2.0577   1.5540  -1.1050   0.00    0.0
2016/01/01 01:04:20.000  -1359100.5574   6570339.6498    781372.8042   6   7   1.7938   3.5749   1.5777  -2.0607   1.5595  -1.1121   0.00    0.0
2016/01/01 01:04:30.000  -1357378.4534   6579494.9875    705039.6631   6   7   1.7972   3.5773   1.5809  -2.0637   1.5651  -1.1192   0.00    0.0
2016/01/01 01:04:40.000  -1355468.7666   6587799.4486    628614.9299   6   7   1.8007   3.5798   1.5844  -2.0668   1.5708  -1.1263   0.00    0.0
2016/01/01 01:04:50.000  -1353372.8760   6595251.4323    552108.7739   6   7   1.8042   3.5825   1.5881  -2.0700   1.5765  -1.1335   0.00    0.0
2016/01/01 01:05:00.000  -1351092.1712   6601849.6530    475530.7575   6   7   1.8079   3.5853   1.5921  -2.0732   1.5824  -1.1407   0.00    0.0
2016/01/01 01:05:10.000  -1348628.1915   6607593.6388    398891.2989   6   8   1.8047   3.4861   1.5465  -2.0436   1.4787  -1.1202   0.00    0.0
2016/01/01 01:05:20.000  -1345982.6142   6612481.4945    322199.5559   6   8   1.7965   3.3207   1.4719  -1.9917   1.2967  -1.0815   0.00    0.0
2016/01/01 01:05:30.000  -1343157.1409   6616512.7301    245466.1254   6   8   1.7959   3.2621   1.4477  -1.9745   1.2304  -1.0720   0.00    0.0
2016/01/01 01:05:40.000  -1340153.1766   6619686.5836    168700.7318   6   8   1.7972   3.2311   1.4369  -1.9661   1.1963  -1.0700   0.00    0.0
2016/01/01 01:05:50.000  -1336972.4827   6622002.5424     91913.5171   6   8   1.7995   3.2116   1.4316  -1.9614   1.1756  -1.0711   0.00    0.0
2016/01/01 01:06:00.000  -1333616.6205   6623459.8582     15114.2470   6   9   1.6641   3.0459   1.3417  -1.7783   0.9331  -0.9015   0.00    0.0
2016/01/01 01:06:10.000  -1330087.5789   6624058.7574    -61686.7092   6   9   1.5124   2.8897   1.2544  -1.5825   0.6389  -0.6984   0.00    0.0
2016/01/01 01:06:20.000  -1326386.9745   6623798.9200   -138479.7095   6   9   1.4567   2.8305   1.2222  -1.5082   0.4892  -0.6142   0.00    0.0
2016/01/01 01:06:30.000  -1322516.4798   6622679.6120   -215254.7021   6   9   1.4270   2.7974   1.2050  -1.4675   0.3822  -0.5663   0.00    0.0
2016/01/01 01:06:40.000  -1318477.6646   6620700.8853   -292001.7628   6   9   1.4081   2.7755   1.1944  -1.4409   0.2902  -0.5347   0.00    0.0
2016/01/01 01:06:50.000  -1314272.5496   6617863.2465   -368710.8399   6   9   1.3947   2.7596   1.1872  -1.4217   0.1966  -0.5120   0.00    0.0
2016/01/01 01:07:00.000  -1309903.0117   6614166.7317   -445372.2512   6   9   1.3846   2.7473   1.1822  -1.4069   0.0521  -0.4947   0.00    0.0
2016/01/01 01:07:10.000  -1305370.8143   6609611.6145   -521975.6439   6   9   1.3767   2.7375   1.1786  -1.3949  -0.1643  -0.4809   0.00    0.0
2016/01/01 01:07:20.000  -1300677.5666   6604198.1311   -598511.5397   6   9   1.3701   2.7294   1.1760  -1.3849  -0.2289  -0.4695   0.00    0.0
2016/01/01 01:07:30.000  -1295825.2686   6597926.8696   -674969.7654   6   9   1.3646   2.7226   1.1742  -1.3764  -0.2733  -0.4600   0.00    0.0
2016/01/01 01:07:40.000  -1290815.9725   6590798.8287   -751340.3562   6   9   1.3599   2.7168   1.1731  -1.3690  -0.3076  -0.4518   0.00    0.0
2016/01/01 01:07:50.000  -1285651.6402   6582814.4932   -827613.5268   6   9   1.3559   2.7119   1.1726  -1.3625  -0.3357  -0.4447   0.00    0.0
2016/01/01 01:08:00.000  -1280333.7753   6573974.7481   -903779.4507   6   9   1.3523   2.7077   1.1724  -1.3568  -0.3597  -0.4383   0.00    0.0
2016/01/01 01:08:10.000  -1274864.8520   6564280.7803   -979828.0287   6   9   1.3491   2.7041   1.1727  -1.3517  -0.3805  -0.4327   0.00    0.0
2016/01/01 01:08:20.000  -1269246.1780   6553733.0327  -1055749.7528   6   9   1.3463   2.7010   1.1732  -1.3471  -0.3990  -0.4276   0.00    0.0
2016/01/01 01:08:30.000  -1263480.2518   6542333.4264  -1131534.4913   6   9   1.3438   2.6983   1.1741  -1.3430  -0.4157  -0.4229   0.00    0.0
2016/01/01 01:08:40.000  -1257568.9153   6530082.9579  -1207172.4582   6   9   1.3416   2.6961   1.1753  -1.3393  -0.4308  -0.4185   0.00    0.0
2016/01/01 01:08:50.000  -1251514.2947   6516983.0980  -1282654.1699   6   9   1.3396   2.6942   1.1766  -1.3360  -0.4446  -0.4145   0.00    0.0
2016/01/01 01:09:00.000  -1245318.1447   6503035.3978  -1357969.4515   6   9   1.3379   2.6927   1.1782  -1.3331  -0.4574  -0.4107   0.00    0.0
2016/01/01 01:09:10.000  -1238982.8977   6488241.7889  -1433108.7918   6   9   1.3363   2.6914   1.1800  -1.3305  -0.4693  -0.4071   0.00    0.0
2016/01/01 01:09:20.000  -1232510.3918   6472603.8645  -1508062.2685   6   9   1.3349   2.6905   1.1819  -1.3283  -0.4803  -0.4037   0.00    0.0
2016/01/01 01:09:30.000  -1225902.6254   6456123.2973  -1582820.4171   6   9   1.3336   2.6898   1.1840  -1.3263  -0.4907  -0.4005   0.00    0.0
2016/01/01 01:09:40.000  -1219161.9220   6438802.5594  -1657373.1950   6   9   1.3326   2.6895   1.1863  -1.3245  -0.5006  -0.3974   0.00    0.0
2016/01/01 01:09:50.000  -1212290.1139   6420643.6258  -1731711.2236   6   9   1.3317   2.6896   1.1888  -1.3229  -0.5102  -0.3946   0.00    0.0
2016/01/01 01:10:00.000  -1205289.5433   6401648.6739  -1805825.0459   6   9   1.3309   2.6903   1.1916  -1.3213  -0.5204  -0.3922   0.00    0.0
2016/01/01 01:10:10.000  -1198162.1771   6381819.7262  -1879704.7986   6   9   1.3305   2.6924   1.1951  -1.3193  -0.5329  -0.3910   0.00    0.0
2016/01/01 01:10:20.000  -1190910.4975   6361159.5246  -1953341.0000   6   9   1.3308   2.6991   1.2013  -1.3152  -0.5558  -0.3939   0.00    0.0
2016/01/01 01:10:30.000  -1183536.3415   6339670.9286  -2026724.2890   6   9   1.3356   2.7376   1.2263  -1.2940  -0.6498  -0.4250   0.00    0.0
2016/01/01 01:10:40.000  -1176041.7647   6317356.2543  -2099845.4587   6   8   1.3565   2.8903   1.3185  -1.2051  -0.9333  -0.5412   0.00    0.0
2016/01/01 01:11:50.000  -1120398.9126   6138269.0797  -2603556.2354   6   9   1.3022   3.0213   1.7112  -0.9525  -1.4844  -0.6791   0.00    0.0
2016/01/01 01:12:10.000  -1103544.7313   6079843.7756  -2744580.1231   6   8   1.2162   2.9430   1.7116  -0.7743  -1.5310  -0.6090   0.00    0.0
2016/01/01 01:12:20.000  -1094969.4798   6049438.7102  -2814564.0811   6   8   1.1856   2.9171   1.7131  -0.7069  -1.5466  -0.5826   0.00    0.0
2016/01/01 01:12:30.000  -1086298.7210   6018244.4372  -2884183.8232   6   8   1.2403   3.1433   2.0131  -0.9745  -1.9193   0.3391   0.00    0.0
2016/01/01 01:12:40.000  -1077534.4461   5986264.6048  -2953430.5929   6   8   1.2002   3.0319   1.8774  -0.8401  -1.7636  -0.2666   0.00    0.0
2016/01/01 01:12:50.000  -1068678.7478   5953502.7576  -3022295.1463   6   8   1.2178   3.1282   2.0346  -0.9395  -1.9326   0.3613   0.00    0.0
2016/01/01 01:13:00.000  -1059734.5175   5919963.9666  -3090769.1962   6   7   1.2126   3.1332   2.0557  -0.9388  -1.9511   0.3915   0.00    0.0
2016/01/01 01:13:10.000  -1050703.5537   5885651.6701  -3158843.3685   6   8   1.2043   3.1248   2.0574  -0.9241  -1.9474   0.3830   0.00    0.0
2016/01/01 01:13:20.000  -1041588.3914   5850570.7039  -3226509.2628   6   8   1.1716   3.0198   1.9127  -0.8002  -1.7852  -0.2168   0.00    0.0
2016/01/01 01:13:30.000  -1032391.1782   5814725.2837  -3293757.9241   6   7   1.1957   3.1304   2.0858  -0.9210  -1.9684   0.4118   0.00    0.0
2016/01/01 01:13:40.000  -1023114.3355   5778120.1609  -3360581.0681   6   7   1.1915   3.1317   2.0964  -0.9183  -1.9749   0.4189   0.00    0.0
